"locator_domain","page_url","location_name","street_address","city","state","zip","country_code","store_number","phone","location_type","latitude","longitude","hours_of_operation"
"https://key.com/","https://www.key.com/locations/ak/eagle-river/BRCH02420015/10928-eagle-river-rd","KeyBank Branch in Eagle River, AK","10928 Eagle River Rd","Eagle River","AK","99577","US","BRCH02420015","907-205-3060","Branch","61.318939","-149.572739","Sunday: Closed;Monday: 10:00 - 17:00;Tuesday: 10:00 - 17:00;Wednesday: 10:00 - 17:00;Thursday: 10:00 - 17:00;Friday: 10:00 - 17:30;Saturday: 11:00 - 14:00"
"https://key.com/","https://www.key.com/locations/ak/anchorage/MCD02420729/101-west-benson-blvd-ste-302","Key Private Bank office in Anchorage, AK","101 West Benson Blvd Ste 302","Anchorage","AK","99503","US","MCD02420729","907-564-0292","Private Bank","61.194778","-149.884460","Sunday: Closed;Monday: 08:00 - 17:00;Tuesday: 08:00 - 17:00;Wednesday: 08:00 - 17:00;Thursday: 08:00 - 17:00;Friday: 08:00 - 17:00;Saturday: Closed"
"https://key.com/","https://www.key.com/locations/ak/anchorage/BRCH02420013/9041-old-seward-hwy","KeyBank Branch in Anchorage, AK","9041 Old Seward Hwy","Anchorage","AK","99515-2025","US","BRCH02420013","907-267-3865","Branch","61.138565","-149.862808","Sunday: Closed;Monday: 09:00 - 18:00;Tuesday: 09:00 - 18:00;Wednesday: 09:00 - 18:00;Thursday: 09:00 - 18:00;Friday: 09:00 - 18:00;Saturday: 11:00 - 14:00"
"https://key.com/","https://www.key.com/locations/ak/kenai/BRCH02420033/801-frontage-rd","KeyBank Branch in Kenai, AK","801 Frontage Rd","Kenai","AK","99611-7755","US","BRCH02420033","844-433-2072","Branch","60.554054","-151.256302","Sunday: Closed;Monday: 09:00 - 17:00;Tuesday: 09:00 - 17:00;Wednesday: 09:00 - 17:00;Thursday: 09:00 - 17:00;Friday: 09:00 - 18:00;Saturday: Closed"
"https://key.com/","https://www.key.com/locations/ak/ketchikan/BRCH02420046/2501-tongass-ave","KeyBank Branch in Ketchikan, AK","2501 Tongass Ave","Ketchikan","AK","99901-5841","US","BRCH02420046","844-433-2068","Branch","55.349384","-131.675903","Sunday: Closed;Monday: 09:00 - 17:00;Tuesday: 09:00 - 17:00;Wednesday: 09:00 - 17:00;Thursday: 09:00 - 17:00;Friday: 09:00 - 17:00;Saturday: Closed"
"https://key.com/","https://www.key.com/locations/co/arvada/BRCH06180006/7878-w-80th-pl","KeyBank Branch in Arvada, CO","7878 W 80th Pl","Arvada","CO","80005-2573","US","BRCH06180006","303-603-7811","Branch","39.842144","-105.085678","Sunday: Closed;Monday: 09:00 - 17:00;Tuesday: 09:00 - 17:00;Wednesday: 09:00 - 17:00;Thursday: 09:00 - 17:00;Friday: 09:00 - 18:00;Saturday: 09:00 - 12:00"
"https://key.com/","https://www.key.com/locations/ak/soldotna/BRCH02420611/44260-sterling-hwy","KeyBank Branch in Soldotna, AK","44260 Sterling Hwy","Soldotna","AK","99669","US","BRCH02420611","844-433-2071","Branch","60.484463","-151.065476","Sunday: Closed;Monday: 09:00 - 17:00;Tuesday: 09:00 - 17:00;Wednesday: 09:00 - 17:00;Thursday: 09:00 - 17:00;Friday: 09:00 - 17:00;Saturday: 11:00 - 14:00"
"https://key.com/","https://www.key.com/locations/ak/kodiak/BRCH02420035/422-w-marine-way","KeyBank Branch in Kodiak, AK","422 W Marine Way","Kodiak","AK","99615","US","BRCH02420035","844-433-2070","Branch","57.788555","-152.407105","Sunday: Closed;Monday: 09:00 - 17:00;Tuesday: 09:00 - 17:00;Wednesday: 09:00 - 17:00;Thursday: 09:00 - 17:00;Friday: 09:00 - 17:30;Saturday: Closed"
"https://key.com/","https://www.key.com/locations/ak/fairbanks/BRCH02420021/100-cushman-st","KeyBank Branch in Fairbanks, AK","100 Cushman St","Fairbanks","AK","99701","US","BRCH02420021","844-433-2064","Branch","64.843582","-147.721863","Sunday: Closed;Monday: 09:00 - 17:00;Tuesday: 09:00 - 17:00;Wednesday: 09:00 - 17:00;Thursday: 09:00 - 17:00;Friday: 09:00 - 17:00;Saturday: Closed"
"https://key.com/","https://www.key.com/locations/co/arvada/BRCH06180535/15590-w-64th-ave","KeyBank Branch in Arvada, CO","15590 W 64th Ave","Arvada","CO","80007","US","BRCH06180535","720-587-6392","Branch","39.812183","-105.174049","Sunday: Closed;Monday: 09:00 - 17:00;Tuesday: 09:00 - 17:00;Wednesday: 09:00 - 17:00;Thursday: 09:00 - 17:00;Friday: 09:00 - 18:00;Saturday: Closed"
"https://key.com/","https://www.key.com/locations/ak/wasilla/BRCH02420031/201-n-lucille-st","KeyBank Branch in Wasilla, AK","201 N Lucille St","Wasilla","AK","99654-7010","US","BRCH02420031","844-433-2066","Branch","61.581482","-149.450241","Sunday: Closed;Monday: 09:00 - 17:00;Tuesday: 09:00 - 17:00;Wednesday: 09:00 - 17:00;Thursday: 09:00 - 17:00;Friday: 09:00 - 18:00;Saturday: 11:00 - 14:00"
"https://key.com/","https://www.key.com/locations/co/aurora/BRCH06180626/10502-e-arizona-place","KeyBank Branch in Aurora, CO","10502 E Arizona Place","Aurora","CO","80012","US","BRCH06180626","720-747-5000","Branch","39.694408","-104.865402","Sunday: Closed;Monday: 09:00 - 17:00;Tuesday: 09:00 - 17:00;Wednesday: 09:00 - 17:00;Thursday: 09:00 - 17:00;Friday: 09:00 - 18:00;Saturday: 09:00 - 12:00"
"https://key.com/","https://www.key.com/locations/co/aurora/BRCH06180300/3607-south-tower-road","KeyBank Branch in Aurora, CO","3607 South Tower Road","Aurora","CO","80013","US","BRCH06180300","303-627-3350","Branch","39.650863","-104.772646","Sunday: Closed;Monday: 09:00 - 17:00;Tuesday: 09:00 - 17:00;Wednesday: 09:00 - 17:00;Thursday: 09:00 - 17:00;Friday: 09:00 - 18:00;Saturday: 09:00 - 12:00"
"https://key.com/","https://www.key.com/locations/co/aurora/BRCH06180013/12101-e-dartmouth-ave-suite-100","KeyBank Branch in Aurora, CO","12101 E. Dartmouth Ave Suite 100","Aurora","CO","80014","US","BRCH06180013","303-306-4760","Branch","39.660790","-104.846621","Sunday: Closed;Monday: 09:00 - 17:00;Tuesday: 09:00 - 17:00;Wednesday: 09:00 - 17:00;Thursday: 09:00 - 17:00;Friday: 09:00 - 18:00;Saturday: 09:00 - 12:00"
"https://key.com/","https://www.key.com/locations/co/boulder/BRCH06180107/2460-baseline-road","KeyBank Branch in Boulder, CO","2460 Baseline Road","Boulder","CO","80305","US","BRCH06180107","720-482-5001","Branch","40.000074","-105.263049","Sunday: Closed;Monday: 09:00 - 17:00;Tuesday: 09:00 - 17:00;Wednesday: 09:00 - 17:00;Thursday: 09:00 - 17:00;Friday: 09:00 - 18:00;Saturday: 09:00 - 12:00"
"https://key.com/","https://www.key.com/locations/co/boulder/BRCH06180622/1933-28th-street","KeyBank Branch in Boulder, CO","1933 28th Street","Boulder","CO","80301","US","BRCH06180622","720-406-6900","Branch","40.020266","-105.258940","Sunday: Closed;Monday: 09:00 - 17:00;Tuesday: 09:00 - 17:00;Wednesday: 09:00 - 17:00;Thursday: 09:00 - 17:00;Friday: 09:00 - 18:00;Saturday: Closed"
"https://key.com/","https://www.key.com/locations/ak/dutch-harbor/BRCH02420034/487-salmon-way-suite-101","KeyBank Branch in Dutch Harbor, AK","487 Salmon Way Suite 101","Dutch Harbor","AK","99692","US","BRCH02420034","907-581-1300","Branch","53.524113","-167.016785","Sunday: Closed;Monday: 09:30 - 17:30;Tuesday: 09:30 - 17:30;Wednesday: 09:30 - 17:30;Thursday: 09:30 - 17:30;Friday: 09:30 - 17:30;Saturday: Closed"
"https://key.com/","https://www.key.com/locations/co/aurora/BRCH06180101/603-n-peoria-st","KeyBank Branch in Aurora, CO","603 N Peoria St","Aurora","CO","80011","US","BRCH06180101","303-363-3180","Branch","39.726105","-104.847649","Sunday: Closed;Monday: 09:00 - 17:00;Tuesday: 09:00 - 17:00;Wednesday: 09:00 - 17:00;Thursday: 09:00 - 17:00;Friday: 09:00 - 18:00;Saturday: 09:00 - 12:00"
"https://key.com/","https://www.key.com/locations/co/broomfield/BRCH06180616/88-lamar-st-ste-100","KeyBank Branch in Broomfield, CO","88 Lamar St Ste 100","Broomfield","CO","80020","US","BRCH06180616","303-460-7888","Branch","39.915474","-105.066582","Sunday: Closed;Monday: 09:00 - 17:00;Tuesday: 09:00 - 17:00;Wednesday: 09:00 - 17:00;Thursday: 09:00 - 17:00;Friday: 09:00 - 18:00;Saturday: Closed"
"https://key.com/","https://www.key.com/locations/ak/juneau/BRCH02420042/8800-glacier-hwy-ste-101","KeyBank Branch in Juneau, AK","8800 Glacier Hwy Ste 101","Juneau","AK","99801","US","BRCH02420042","844-433-2073","Branch","58.363941","-134.578583","Sunday: Closed;Monday: 09:00 - 17:00;Tuesday: 09:00 - 17:00;Wednesday: 09:00 - 17:00;Thursday: 09:00 - 17:00;Friday: 09:00 - 17:00;Saturday: 11:00 - 14:00"
"https://key.com/","https://www.key.com/locations/co/aurora/BRCH06180645/1260-south-buckley-rd","KeyBank Branch in Aurora, CO","1260 South Buckley Rd","Aurora","CO","80017","US","BRCH06180645","303-743-6280","Branch","39.693661","-104.790543","Sunday: Closed;Monday: 09:00 - 17:00;Tuesday: 09:00 - 17:00;Wednesday: 09:00 - 17:00;Thursday: 09:00 - 17:00;Friday: 09:00 - 18:00;Saturday: 09:00 - 12:00"
"https://key.com/","https://www.key.com/locations/co/centennial/BRCH06180619/16796-e-smoky-hill-road","KeyBank Branch in Centennial, CO","16796 E Smoky Hill Road","Centennial","CO","80015","US","BRCH06180619","303-627-5640","Branch","39.626129","-104.792824","Sunday: Closed;Monday: 09:00 - 17:00;Tuesday: 09:00 - 17:00;Wednesday: 09:00 - 17:00;Thursday: 09:00 - 17:00;Friday: 09:00 - 18:00;Saturday: 09:00 - 12:00"
"https://key.com/","https://www.key.com/locations/co/castle-pines/BRCH06180964/7288-lagae-rd","KeyBank Branch in Castle Pines, CO","7288 Lagae Rd","Castle Pines","CO","80108","US","BRCH06180964","303-660-2780","Branch","39.469727","-104.880394","Sunday: Closed;Monday: 09:00 - 17:00;Tuesday: 09:00 - 17:00;Wednesday: 09:00 - 17:00;Thursday: 09:00 - 17:00;Friday: 09:00 - 18:00;Saturday: Closed"
"https://key.com/","https://www.key.com/locations/co/castle-rock/BRCH06180554/4535-milestone-ln","KeyBank Branch in Castle Rock, CO","4535 Milestone Ln","Castle Rock","CO","80104","US","BRCH06180554","303-663-5340","Branch","39.407043","-104.863457","Sunday: Closed;Monday: 09:00 - 17:00;Tuesday: 09:00 - 17:00;Wednesday: 09:00 - 17:00;Thursday: 09:00 - 17:00;Friday: 09:00 - 18:00;Saturday: 09:00 - 12:00"
"https://key.com/","https://www.key.com/locations/co/centennial/BRCH06180625/15590-e-broncos-parkway","KeyBank Branch in Centennial, CO","15590 E Broncos Parkway","Centennial","CO","80112","US","BRCH06180625","303-784-6500","Branch","39.575531","-104.807479","Sunday: Closed;Monday: 09:00 - 17:00;Tuesday: 09:00 - 17:00;Wednesday: 09:00 - 17:00;Thursday: 09:00 - 17:00;Friday: 09:00 - 18:00;Saturday: Closed"
"https://key.com/","https://www.key.com/locations/co/centennial/BRCH06180553/20290-e-smoky-hill-rd","KeyBank Branch in Centennial, CO","20290 E Smoky Hill Rd","Centennial","CO","80015","US","BRCH06180553","720-587-6362","Branch","39.609959","-104.752113","Sunday: Closed;Monday: 09:00 - 17:00;Tuesday: 09:00 - 17:00;Wednesday: 09:00 - 17:00;Thursday: 09:00 - 17:00;Friday: 09:00 - 18:00;Saturday: 09:00 - 12:00"
"https://key.com/","https://www.key.com/locations/co/colorado-springs/BRCH06180019/5725-north-academy-blvd","KeyBank Branch in Colorado Springs, CO","5725 North Academy Blvd","Colorado Springs","CO","80918","US","BRCH06180019","719-278-5080","Branch","38.914144","-104.787472","Sunday: Closed;Monday: 09:00 - 17:00;Tuesday: 09:00 - 17:00;Wednesday: 09:00 - 17:00;Thursday: 09:00 - 17:00;Friday: 09:00 - 18:00;Saturday: 09:00 - 12:00"
"https://key.com/","https://www.key.com/locations/co/colorado-springs/BRCH06180621/3605-hartsel-dr","KeyBank Branch in Colorado Springs, CO","3605 Hartsel Dr","Colorado Springs","CO","80920","US","BRCH06180621","719-272-8400","Branch","38.938845","-104.758597","Sunday: Closed;Monday: 09:00 - 17:00;Tuesday: 09:00 - 17:00;Wednesday: 09:00 - 17:00;Thursday: 09:00 - 17:00;Friday: 09:00 - 18:00;Saturday: Closed"
"https://key.com/","https://www.key.com/locations/co/colorado-springs/BRCH06180018/3085-s-academy-blvd","KeyBank Branch in Colorado Springs, CO","3085 S Academy Blvd","Colorado Springs","CO","80916","US","BRCH06180018","719-391-5700","Branch","38.787689","-104.754882","Sunday: Closed;Monday: 09:00 - 17:00;Tuesday: 09:00 - 17:00;Wednesday: 09:00 - 17:00;Thursday: 09:00 - 17:00;Friday: 09:00 - 18:00;Saturday: 09:00 - 12:00"
"https://key.com/","https://www.key.com/locations/co/denver/BRCH06180649/829-16th-street","KeyBank Branch in Denver, CO","829 16th Street","Denver","CO","80202","US","BRCH06180649","303-640-3480","Branch","39.746115","-104.993298","Sunday: Closed;Monday: 09:00 - 17:00;Tuesday: 09:00 - 17:00;Wednesday: 09:00 - 17:00;Thursday: 09:00 - 17:00;Friday: 09:00 - 18:00;Saturday: Closed"
"https://key.com/","https://www.key.com/locations/co/denver/BRCH06180045/3410-e-1st-ave","KeyBank Branch in Denver, CO","3410 E 1st Ave","Denver","CO","80206","US","BRCH06180045","303-321-1234","Branch","39.717480","-104.946983","Sunday: Closed;Monday: 09:00 - 17:00;Tuesday: 09:00 - 17:00;Wednesday: 09:00 - 17:00;Thursday: 09:00 - 17:00;Friday: 09:00 - 18:00;Saturday: 09:00 - 12:00"
"https://key.com/","https://www.key.com/locations/co/colorado-springs/BRCH06180042/1521-s-8th-st","KeyBank Branch in Colorado Springs, CO","1521 S 8th St","Colorado Springs","CO","80905","US","BRCH06180042","719-471-1300","Branch","38.812210","-104.840250","Sunday: Closed;Monday: 09:00 - 17:00;Tuesday: 09:00 - 17:00;Wednesday: 09:00 - 17:00;Thursday: 09:00 - 17:00;Friday: 09:00 - 18:00;Saturday: Closed"
"https://key.com/","https://www.key.com/locations/co/denver/BRCH06180695/2305-s-colorado-blvd","KeyBank Branch in Denver, CO","2305 S Colorado Blvd","Denver","CO","80222","US","BRCH06180695","303-753-1779","Branch","39.674549","-104.941216","Sunday: Closed;Monday: 09:00 - 17:00;Tuesday: 09:00 - 17:00;Wednesday: 09:00 - 17:00;Thursday: 09:00 - 17:00;Friday: 09:00 - 18:00;Saturday: 09:00 - 12:00"
"https://key.com/","https://www.key.com/locations/co/denver/BRCH06180691/200-broadway","KeyBank Branch in Denver, CO","200 Broadway","Denver","CO","80203","US","BRCH06180691","303-733-0559","Branch","39.719589","-104.987122","Sunday: Closed;Monday: 09:00 - 17:00;Tuesday: 09:00 - 17:00;Wednesday: 09:00 - 17:00;Thursday: 09:00 - 17:00;Friday: 09:00 - 18:00;Saturday: 09:00 - 12:00"
"https://key.com/","https://www.key.com/locations/co/denver/BRCH06180008/1675-broadway","KeyBank Branch in Denver, CO","1675 Broadway","Denver","CO","80202","US","BRCH06180008","303-298-1234","Branch","39.742970","-104.987438","Sunday: Closed;Monday: 09:00 - 17:00;Tuesday: 09:00 - 17:00;Wednesday: 09:00 - 17:00;Thursday: 09:00 - 17:00;Friday: 09:00 - 17:00;Saturday: Closed"
"https://key.com/","https://www.key.com/locations/co/denver/BRCH06180694/5901-w-44th-ave","KeyBank Branch in Denver, CO","5901 W 44th Ave","Denver","CO","80212","US","BRCH06180694","303-480-5060","Branch","39.777050","-105.061592","Sunday: Closed;Monday: 09:00 - 17:00;Tuesday: 09:00 - 17:00;Wednesday: 09:00 - 17:00;Thursday: 09:00 - 17:00;Friday: 09:00 - 18:00;Saturday: 09:00 - 12:00"
"https://key.com/","https://www.key.com/locations/co/denver/BRCH06180064/2776-n-speer-blvd","KeyBank Branch in Denver, CO","2776 N Speer Blvd","Denver","CO","80211","US","BRCH06180064","303-455-2233","Branch","39.757229","-105.017464","Sunday: Closed;Monday: 09:00 - 17:00;Tuesday: 09:00 - 17:00;Wednesday: 09:00 - 17:00;Thursday: 09:00 - 17:00;Friday: 09:00 - 18:00;Saturday: 09:00 - 12:00"
"https://key.com/","https://www.key.com/locations/co/denver/BRCH06180029/2693-west-evans-ave","KeyBank Branch in Denver, CO","2693 West Evans Ave","Denver","CO","80219","US","BRCH06180029","303-742-2420","Branch","39.679214","-105.019928","Sunday: Closed;Monday: 09:00 - 17:00;Tuesday: 09:00 - 17:00;Wednesday: 09:00 - 17:00;Thursday: 09:00 - 17:00;Friday: 09:00 - 18:00;Saturday: 09:00 - 12:00"
"https://key.com/","https://www.key.com/locations/co/denver/BRCH06180025/3600-s-yosemite-st","KeyBank Branch in Denver, CO","3600 S Yosemite St","Denver","CO","80237","US","BRCH06180025","303-773-1234","Branch","39.650871","-104.883675","Sunday: Closed;Monday: 09:00 - 17:00;Tuesday: 09:00 - 17:00;Wednesday: 09:00 - 17:00;Thursday: 09:00 - 17:00;Friday: 09:00 - 18:00;Saturday: Closed"
"https://key.com/","https://www.key.com/locations/co/denver/MCD06180507/101-university-blvd-suite-150","Key Private Bank office in Denver, CO","101 University Blvd Suite 150","Denver","CO","80206","US","MCD06180507","303-389-5997","Private Bank","39.718849","-104.959763","Sunday: Closed;Monday: 08:00 - 17:00;Tuesday: 08:00 - 17:00;Wednesday: 08:00 - 17:00;Thursday: 08:00 - 17:00;Friday: 08:00 - 17:00;Saturday: Closed"
"https://key.com/","https://www.key.com/locations/co/denver/BRCH06180106/6405-east-hampden-ave","KeyBank Branch in Denver, CO","6405 East Hampden Ave","Denver","CO","80222","US","BRCH06180106","303-305-7610","Branch","39.653576","-104.914978","Sunday: Closed;Monday: 09:00 - 17:00;Tuesday: 09:00 - 17:00;Wednesday: 09:00 - 17:00;Thursday: 09:00 - 17:00;Friday: 09:00 - 18:00;Saturday: 09:00 - 12:00"
"https://key.com/","https://www.key.com/locations/co/fort-collins/BRCH06180002/100-e-drake-rd","KeyBank Branch in Fort Collins, CO","100 E Drake Rd","Fort Collins","CO","80525-1728","US","BRCH06180002","970-416-6006","Branch","40.552979","-105.076622","Sunday: Closed;Monday: 09:00 - 17:00;Tuesday: 09:00 - 17:00;Wednesday: 09:00 - 17:00;Thursday: 09:00 - 17:00;Friday: 09:00 - 18:00;Saturday: 09:00 - 12:00"
"https://key.com/","https://www.key.com/locations/co/englewood/BRCH06180014/9250-e-arapahoe-rd","KeyBank Branch in Englewood, CO","9250 E Arapahoe Rd","Englewood","CO","80112","US","BRCH06180014","303-799-6664","Branch","39.594471","-104.881241","Sunday: Closed;Monday: 09:00 - 17:00;Tuesday: 09:00 - 17:00;Wednesday: 09:00 - 17:00;Thursday: 09:00 - 17:00;Friday: 09:00 - 18:00;Saturday: 09:00 - 12:00"
"https://key.com/","https://www.key.com/locations/co/ft-collins/BRCH06180001/300-w-oak-st","KeyBank Branch in Ft Collins, CO","300 W Oak St","Ft Collins","CO","80521","US","BRCH06180001","970-495-3331","Branch","40.585655","-105.080921","Sunday: Closed;Monday: 09:00 - 17:00;Tuesday: 09:00 - 17:00;Wednesday: 09:00 - 17:00;Thursday: 09:00 - 17:00;Friday: 09:00 - 17:00;Saturday: Closed"
"https://key.com/","https://www.key.com/locations/co/golden/BRCH06180698/1222-arapahoe-st","KeyBank Branch in Golden, CO","1222 Arapahoe St","Golden","CO","80401","US","BRCH06180698","720-497-8580","Branch","39.754541","-105.222242","Sunday: Closed;Monday: 09:00 - 17:00;Tuesday: 09:00 - 17:00;Wednesday: 09:00 - 17:00;Thursday: 09:00 - 17:00;Friday: 09:00 - 18:00;Saturday: Closed"
"https://key.com/","https://www.key.com/locations/co/estes-park/BRCH06180007/541-big-thompson-ave","KeyBank Branch in Estes Park, CO","541 Big Thompson Ave","Estes Park","CO","80517","US","BRCH06180007","970-586-2364","Branch","40.379030","-105.515138","Sunday: Closed;Monday: 08:00 - 16:00;Tuesday: 08:00 - 16:00;Wednesday: 08:00 - 16:00;Thursday: 08:00 - 16:00;Friday: 08:00 - 16:00;Saturday: Closed"
"https://key.com/","https://www.key.com/locations/co/commerce-city/BRCH06180011/6565-e-73rd-ave","KeyBank Branch in Commerce City, CO","6565 E 73rd Ave","Commerce City","CO","80022","US","BRCH06180011","720-956-5978","Branch","39.829678","-104.911118","Sunday: Closed;Monday: 09:00 - 17:00;Tuesday: 09:00 - 17:00;Wednesday: 09:00 - 17:00;Thursday: 09:00 - 17:00;Friday: 09:00 - 18:00;Saturday: 09:00 - 12:00"
"https://key.com/","https://www.key.com/locations/co/highlands-ranch/BRCH06180568/9309-dorchester-st","KeyBank Branch in Highlands Ranch, CO","9309 Dorchester St","Highlands Ranch","CO","80129-2522","US","BRCH06180568","303-346-4680","Branch","39.553230","-104.969643","Sunday: Closed;Monday: 09:00 - 17:00;Tuesday: 09:00 - 17:00;Wednesday: 09:00 - 17:00;Thursday: 09:00 - 17:00;Friday: 09:00 - 18:00;Saturday: 09:00 - 12:00"
"https://key.com/","https://www.key.com/locations/co/lakewood/BRCH06180696/7425-w-alameda","KeyBank Branch in Lakewood, CO","7425 W Alameda","Lakewood","CO","80226","US","BRCH06180696","303-980-4006","Branch","39.711597","-105.080147","Sunday: Closed;Monday: 09:00 - 17:00;Tuesday: 09:00 - 17:00;Wednesday: 09:00 - 17:00;Thursday: 09:00 - 17:00;Friday: 09:00 - 18:00;Saturday: 09:00 - 12:00"
"https://key.com/","https://www.key.com/locations/co/ft-collins/BRCH06180009/1130-haxton-dr","KeyBank Branch in Ft Collins, CO","1130 Haxton Dr","Ft Collins","CO","80525","US","BRCH06180009","970-377-4020","Branch","40.522999","-105.056854","Sunday: Closed;Monday: 09:00 - 17:00;Tuesday: 09:00 - 17:00;Wednesday: 09:00 - 17:00;Thursday: 09:00 - 17:00;Friday: 09:00 - 18:00;Saturday: Closed"
"https://key.com/","https://www.key.com/locations/co/lakewood/BRCH06180022/1420-colorado-mills-pkwy","KeyBank Branch in Lakewood, CO","1420 Colorado Mills Pkwy","Lakewood","CO","80401","US","BRCH06180022","303-273-5180","Branch","39.737553","-105.155304","Sunday: Closed;Monday: 09:00 - 17:00;Tuesday: 09:00 - 17:00;Wednesday: 09:00 - 17:00;Thursday: 09:00 - 17:00;Friday: 09:00 - 18:00;Saturday: 09:00 - 12:00"
"https://key.com/","https://www.key.com/locations/co/littleton/BRCH06180387/7323-w-chatfield-ave","KeyBank Branch in Littleton, CO","7323 W Chatfield Ave","Littleton","CO","80128","US","BRCH06180387","720-922-2240","Branch","39.566711","-105.079376","Sunday: Closed;Monday: 09:00 - 17:00;Tuesday: 09:00 - 17:00;Wednesday: 09:00 - 17:00;Thursday: 09:00 - 17:00;Friday: 09:00 - 18:00;Saturday: 09:00 - 12:00"
"https://key.com/","https://www.key.com/locations/co/littleton/BRCH06180030/2950-w-belleview-ave","KeyBank Branch in Littleton, CO","2950 W Belleview Ave","Littleton","CO","80123","US","BRCH06180030","303-707-4070","Branch","39.623604","-105.022484","Sunday: Closed;Monday: 09:00 - 17:00;Tuesday: 09:00 - 17:00;Wednesday: 09:00 - 17:00;Thursday: 09:00 - 17:00;Friday: 09:00 - 18:00;Saturday: 09:00 - 12:00"
"https://key.com/","https://www.key.com/locations/co/lakewood/BRCH06180699/1858-s-wadsworth-blvd","KeyBank Branch in Lakewood, CO","1858 S Wadsworth Blvd","Lakewood","CO","80232","US","BRCH06180699","303-716-7424","Branch","39.683872","-105.080689","Sunday: Closed;Monday: 09:00 - 17:00;Tuesday: 09:00 - 17:00;Wednesday: 09:00 - 17:00;Thursday: 09:00 - 17:00;Friday: 09:00 - 18:00;Saturday: 09:00 - 12:00"
"https://key.com/","https://www.key.com/locations/co/lakewood/BRCH06180026/6599-west-colfax-ave","KeyBank Branch in Lakewood, CO","6599 West Colfax Ave","Lakewood","CO","80214","US","BRCH06180026","303-205-4480","Branch","39.740738","-105.069183","Sunday: Closed;Monday: 09:00 - 17:00;Tuesday: 09:00 - 17:00;Wednesday: 09:00 - 17:00;Thursday: 09:00 - 17:00;Friday: 09:00 - 18:00;Saturday: 09:00 - 12:00"
"https://key.com/","https://www.key.com/locations/co/littleton/BRCH06180082/7940-s-broadway","KeyBank Branch in Littleton, CO","7940 S Broadway","Littleton","CO","80122","US","BRCH06180082","303-798-0300","Branch","39.572563","-104.987899","Sunday: Closed;Monday: 09:00 - 17:00;Tuesday: 09:00 - 17:00;Wednesday: 09:00 - 17:00;Thursday: 09:00 - 17:00;Friday: 09:00 - 18:00;Saturday: 09:00 - 12:00"
"https://key.com/","https://www.key.com/locations/co/littleton/BRCH06180023/9900-w-belleview-ave","KeyBank Branch in Littleton, CO","9900 W Belleview Ave","Littleton","CO","80123","US","BRCH06180023","303-932-8418","Branch","39.624150","-105.109053","Sunday: Closed;Monday: 09:00 - 17:00;Tuesday: 09:00 - 17:00;Wednesday: 09:00 - 17:00;Thursday: 09:00 - 17:00;Friday: 09:00 - 18:00;Saturday: 09:00 - 12:00"
"https://key.com/","https://www.key.com/locations/co/longmont/BRCH06180562/2361-clover-basin-dr","KeyBank Branch in Longmont, CO","2361 Clover Basin Dr","Longmont","CO","80503","US","BRCH06180562","303-845-2000","Branch","40.144101","-105.132942","Sunday: Closed;Monday: 09:00 - 17:00;Tuesday: 09:00 - 17:00;Wednesday: 09:00 - 17:00;Thursday: 09:00 - 17:00;Friday: 09:00 - 18:00;Saturday: Closed"
"https://key.com/","https://www.key.com/locations/co/thornton/BRCH06180347/12801-colorado-blvd","KeyBank Branch in Thornton, CO","12801 Colorado Blvd","Thornton","CO","80241","US","BRCH06180347","303-451-4730","Branch","39.928780","-104.940895","Sunday: Closed;Monday: 09:00 - 17:00;Tuesday: 09:00 - 17:00;Wednesday: 09:00 - 17:00;Thursday: 09:00 - 17:00;Friday: 09:00 - 18:00;Saturday: Closed"
"https://key.com/","https://www.key.com/locations/co/louisville/BRCH06180627/409-south-mccaslin-blvd","KeyBank Branch in Louisville, CO","409 South Mccaslin Blvd","Louisville","CO","80027","US","BRCH06180627","303-664-4400","Branch","39.964828","-105.163609","Sunday: Closed;Monday: 09:00 - 17:00;Tuesday: 09:00 - 17:00;Wednesday: 09:00 - 17:00;Thursday: 09:00 - 17:00;Friday: 09:00 - 18:00;Saturday: Closed"
"https://key.com/","https://www.key.com/locations/co/parker/BRCH06180986/10951-s-parker-road","KeyBank Branch in Parker, CO","10951 S Parker Road","Parker","CO","80134","US","BRCH06180986","303-840-7162","Branch","39.518070","-104.765686","Sunday: Closed;Monday: 09:00 - 17:00;Tuesday: 09:00 - 17:00;Wednesday: 09:00 - 17:00;Thursday: 09:00 - 17:00;Friday: 09:00 - 18:00;Saturday: 09:00 - 12:00"
"https://key.com/","https://www.key.com/locations/co/littleton/BRCH06180343/7551-shaffer-parkway","KeyBank Branch in Littleton, CO","7551 Shaffer Parkway","Littleton","CO","80127","US","BRCH06180343","720-922-2200","Branch","39.579479","-105.137474","Sunday: Closed;Monday: 09:00 - 17:00;Tuesday: 09:00 - 17:00;Wednesday: 09:00 - 17:00;Thursday: 09:00 - 17:00;Friday: 09:00 - 18:00;Saturday: Closed"
"https://key.com/","https://www.key.com/locations/co/loveland/BRCH06180005/125-e-7th-st","KeyBank Branch in Loveland, CO","125 E 7th St","Loveland","CO","80537","US","BRCH06180005","970-667-3083","Branch","40.398895","-105.075142","Sunday: Closed;Monday: 09:00 - 17:00;Tuesday: 09:00 - 17:00;Wednesday: 09:00 - 17:00;Thursday: 09:00 - 17:00;Friday: 09:00 - 18:00;Saturday: Closed"
"https://key.com/","https://www.key.com/locations/ct/avon/BRCH32900681/232-west-main-st","KeyBank Branch in Avon, CT","232 West Main St","Avon","CT","06001","US","BRCH32900681","860-676-0338","Branch","41.812524","-72.851483","Sunday: Closed;Monday: 09:00 - 16:00;Tuesday: 09:00 - 16:00;Wednesday: 09:00 - 16:00;Thursday: 09:00 - 17:00;Friday: 09:00 - 17:00;Saturday: 09:00 - 12:00"
"https://key.com/","https://www.key.com/locations/co/thornton/BRCH06180567/3505-east-104th-ave","KeyBank Branch in Thornton, CO","3505 East 104th Ave","Thornton","CO","80233","US","BRCH06180567","303-262-8126","Branch","39.885042","-104.943722","Sunday: Closed;Monday: 09:00 - 17:00;Tuesday: 09:00 - 17:00;Wednesday: 09:00 - 17:00;Thursday: 09:00 - 17:00;Friday: 09:00 - 18:00;Saturday: 09:00 - 12:00"
"https://key.com/","https://www.key.com/locations/co/westminster/BRCH06180948/7198-federal-blvd","KeyBank Branch in Westminster, CO","7198 Federal Blvd","Westminster","CO","80030","US","BRCH06180948","303-650-3040","Branch","39.826927","-105.024323","Sunday: Closed;Monday: 09:00 - 17:00;Tuesday: 09:00 - 17:00;Wednesday: 09:00 - 17:00;Thursday: 09:00 - 17:00;Friday: 09:00 - 18:00;Saturday: 09:00 - 12:00"
"https://key.com/","https://www.key.com/locations/ct/branford/BRCH32900738/1026-main-street","KeyBank Branch in Branford, CT","1026 Main Street","Branford","CT","06405","US","BRCH32900738","203-483-1713","Branch","41.282194","-72.811227","Sunday: Closed;Monday: 09:00 - 17:00;Tuesday: 09:00 - 17:00;Wednesday: 09:00 - 17:00;Thursday: 09:00 - 17:00;Friday: 09:00 - 17:00;Saturday: 09:00 - 12:00"
"https://key.com/","https://www.key.com/locations/ct/cheshire/BRCH32900737/1157-highland-avenue","KeyBank Branch in Cheshire, CT","1157 Highland Avenue","Cheshire","CT","06410","US","BRCH32900737","203-271-1508","Branch","41.530292","-72.895609","Sunday: Closed;Monday: 09:00 - 16:00;Tuesday: 09:00 - 16:00;Wednesday: 09:00 - 16:00;Thursday: 09:00 - 17:00;Friday: 09:00 - 17:00;Saturday: 09:00 - 12:00"
"https://key.com/","https://www.key.com/locations/ct/clinton/BRCH32900708/250-east-main-street","KeyBank Branch in Clinton, CT","250 East Main Street","Clinton","CT","06413","US","BRCH32900708","860-669-2950","Branch","41.271125","-72.503510","Sunday: Closed;Monday: 09:00 - 16:00;Tuesday: 09:00 - 16:00;Wednesday: 09:00 - 16:00;Thursday: 09:00 - 17:00;Friday: 09:00 - 17:00;Saturday: 09:00 - 12:00"
"https://key.com/","https://www.key.com/locations/ct/columbia/BRCH32900802/164-middletown-road","KeyBank Branch in Columbia, CT","164 Middletown Road","Columbia","CT","06237","US","BRCH32900802","860-228-2265","Branch","41.720094","-72.271558","Sunday: Closed;Monday: 09:00 - 16:00;Tuesday: 09:00 - 16:00;Wednesday: 09:00 - 16:00;Thursday: 09:00 - 17:00;Friday: 09:00 - 17:00;Saturday: Closed"
"https://key.com/","https://www.key.com/locations/ct/coventry/BRCH32900774/3534-main-street","KeyBank Branch in Coventry, CT","3534 Main Street","Coventry","CT","06238","US","BRCH32900774","860-742-5311","Branch","41.797917","-72.370018","Sunday: Closed;Monday: 09:00 - 17:00;Tuesday: 09:00 - 17:00;Wednesday: 09:00 - 17:00;Thursday: 09:00 - 17:00;Friday: 09:00 - 17:00;Saturday: 09:00 - 12:00"
"https://key.com/","https://www.key.com/locations/co/lone-tree/BRCH06180561/10470-park-meadows-dr","KeyBank Branch in Lone Tree, CO","10470 Park Meadows Dr","Lone Tree","CO","80124","US","BRCH06180561","303-262-8086","Branch","39.536876","-104.873481","Sunday: Closed;Monday: 09:00 - 17:00;Tuesday: 09:00 - 17:00;Wednesday: 09:00 - 17:00;Thursday: 09:00 - 17:00;Friday: 09:00 - 18:00;Saturday: 09:00 - 12:00"
"https://key.com/","https://www.key.com/locations/ct/centerbrook/BRCH32900706/63-main-street","KeyBank Branch in Centerbrook, CT","63 Main Street","Centerbrook","CT","06409","US","BRCH32900706","860-767-8208","Branch","41.351839","-72.417004","Sunday: Closed;Monday: 09:00 - 17:00;Tuesday: 09:00 - 17:00;Wednesday: 09:00 - 17:00;Thursday: 09:00 - 17:00;Friday: 09:00 - 17:00;Saturday: 09:00 - 12:00"
"https://key.com/","https://www.key.com/locations/ct/danielson/BRCH32900797/203-main-street","KeyBank Branch in Danielson, CT","203 Main Street","Danielson","CT","06239","US","BRCH32900797","860-774-8501","Branch","41.806895","-71.882276","Sunday: Closed;Monday: 09:00 - 16:00;Tuesday: 09:00 - 16:00;Wednesday: 09:00 - 16:00;Thursday: 09:00 - 17:00;Friday: 09:00 - 17:00;Saturday: 09:00 - 12:00"
"https://key.com/","https://www.key.com/locations/ct/east-hartford/BRCH32900808/950-silver-lane","KeyBank Branch in East Hartford, CT","950 Silver Lane","East Hartford","CT","06118","US","BRCH32900808","860-568-7137","Branch","41.765873","-72.602615","Sunday: Closed;Monday: 09:00 - 17:00;Tuesday: 09:00 - 17:00;Wednesday: 09:00 - 17:00;Thursday: 09:00 - 17:00;Friday: 09:00 - 17:00;Saturday: 09:00 - 12:00"
"https://key.com/","https://www.key.com/locations/co/westminster/BRCH06180607/14412-orchard-parkway","KeyBank Branch in Westminster, CO","14412 Orchard Parkway","Westminster","CO","80023","US","BRCH06180607","720-872-6460","Branch","39.958115","-104.993111","Sunday: Closed;Monday: 09:00 - 17:00;Tuesday: 09:00 - 17:00;Wednesday: 09:00 - 17:00;Thursday: 09:00 - 17:00;Friday: 09:00 - 18:00;Saturday: 09:00 - 12:00"
"https://key.com/","https://www.key.com/locations/ct/east-windsor/BRCH32900755/122-a-prospect-hill-road","KeyBank Branch in East Windsor, CT","122-A Prospect Hill Road","East Windsor","CT","06088","US","BRCH32900755","860-627-2750","Branch","41.929240","-72.604635","Sunday: Closed;Monday: 09:00 - 17:00;Tuesday: 09:00 - 17:00;Wednesday: 09:00 - 17:00;Thursday: 09:00 - 17:00;Friday: 09:00 - 17:00;Saturday: 09:00 - 12:00"
"https://key.com/","https://www.key.com/locations/ct/enfield/BRCH32900778/73-hazard-avenue","KeyBank Branch in Enfield, CT","73 Hazard Avenue","Enfield","CT","06082","US","BRCH32900778","860-745-6100","Branch","41.989903","-72.572036","Sunday: Closed;Monday: 09:00 - 17:00;Tuesday: 09:00 - 17:00;Wednesday: 09:00 - 17:00;Thursday: 09:00 - 17:00;Friday: 09:00 - 17:00;Saturday: 09:00 - 12:00"
"https://key.com/","https://www.key.com/locations/ct/east-haven/BRCH32900716/245-main-street","KeyBank Branch in East Haven, CT","245 Main Street","East Haven","CT","06512","US","BRCH32900716","203-467-7723","Branch","41.277925","-72.871201","Sunday: Closed;Monday: 09:00 - 17:00;Tuesday: 09:00 - 17:00;Wednesday: 09:00 - 17:00;Thursday: 09:00 - 17:00;Friday: 09:00 - 17:00;Saturday: 09:00 - 12:00"
"https://key.com/","https://www.key.com/locations/ct/fairfield/BRCH32900683/1761-post-rd","KeyBank Branch in Fairfield, CT","1761 Post Rd","Fairfield","CT","06824","US","BRCH32900683","203-254-0207","Branch","41.141035","-73.262860","Sunday: Closed;Monday: 09:00 - 16:00;Tuesday: 09:00 - 16:00;Wednesday: 09:00 - 16:00;Thursday: 09:00 - 17:00;Friday: 09:00 - 17:00;Saturday: 09:00 - 12:00"
"https://key.com/","https://www.key.com/locations/ct/glastonbury/BRCH32900807/2510-main-street","KeyBank Branch in Glastonbury, CT","2510 Main Street","Glastonbury","CT","06033","US","BRCH32900807","860-659-1657","Branch","41.714207","-72.609431","Sunday: Closed;Monday: 09:00 - 17:00;Tuesday: 09:00 - 17:00;Wednesday: 09:00 - 17:00;Thursday: 09:00 - 17:00;Friday: 09:00 - 17:00;Saturday: 09:00 - 12:00"
"https://key.com/","https://www.key.com/locations/ct/eastford/BRCH32900754/4-county-road","KeyBank Branch in Eastford, CT","4 County Road","Eastford","CT","06242","US","BRCH32900754","860-974-6012","Branch","41.902270","-72.079518","Sunday: Closed;Monday: 09:00 - 17:00;Tuesday: 09:00 - 17:00;Wednesday: 09:00 - 17:00;Thursday: 09:00 - 17:00;Friday: 09:00 - 17:00;Saturday: Closed"
"https://key.com/","https://www.key.com/locations/ct/hartford/BRCH32900698/225-trumbull-street","KeyBank Branch in Hartford, CT","225 Trumbull Street","Hartford","CT","06103","US","BRCH32900698","860-240-2626","Branch","41.767852","-72.675965","Sunday: Closed;Monday: 09:00 - 17:00;Tuesday: 09:00 - 17:00;Wednesday: 09:00 - 17:00;Thursday: 09:00 - 17:00;Friday: 09:00 - 17:00;Saturday: Closed"
"https://key.com/","https://www.key.com/locations/ct/guilford/BRCH32900727/1021-boston-post-road","KeyBank Branch in Guilford, CT","1021 Boston Post Road","Guilford","CT","06437","US","BRCH32900727","203-453-7529","Branch","41.288418","-72.683591","Sunday: Closed;Monday: 09:00 - 17:00;Tuesday: 09:00 - 17:00;Wednesday: 09:00 - 17:00;Thursday: 09:00 - 17:00;Friday: 09:00 - 17:00;Saturday: 09:00 - 12:00"
"https://key.com/","https://www.key.com/locations/ct/hartford/MCD32900927/100-pearl-st-13th-fl","Key Private Bank office in Hartford, CT","100 Pearl St. 13th Fl.","Hartford","CT","06103","US","MCD32900927","860-293-4140","Private Bank","41.766415","-72.674988","Sunday: Closed;Monday: 08:00 - 16:30;Tuesday: 08:00 - 16:30;Wednesday: 08:00 - 16:30;Thursday: 08:00 - 16:30;Friday: 08:00 - 16:30;Saturday: Closed"
"https://key.com/","https://www.key.com/locations/ct/madison/BRCH32900717/724-boston-post-road","KeyBank Branch in Madison, CT","724 Boston Post Road","Madison","CT","06443","US","BRCH32900717","203-245-7355","Branch","41.279220","-72.595876","Sunday: Closed;Monday: 09:00 - 17:00;Tuesday: 09:00 - 17:00;Wednesday: 09:00 - 17:00;Thursday: 09:00 - 17:00;Friday: 09:00 - 17:00;Saturday: 09:00 - 12:00"
"https://key.com/","https://www.key.com/locations/ct/hamden/BRCH32900723/2856-whitney-avenue","KeyBank Branch in Hamden, CT","2856 Whitney Avenue","Hamden","CT","06518","US","BRCH32900723","203-287-3156","Branch","41.399733","-72.898267","Sunday: Closed;Monday: 09:00 - 16:00;Tuesday: 09:00 - 16:00;Wednesday: 09:00 - 16:00;Thursday: 09:00 - 17:00;Friday: 09:00 - 17:00;Saturday: 09:00 - 12:00"
"https://key.com/","https://www.key.com/locations/ct/hartford/BRCH32900779/1700-park-street","KeyBank Branch in Hartford, CT","1700 Park Street","Hartford","CT","06106","US","BRCH32900779","860-586-2001","Branch","41.757325","-72.706734","Sunday: Closed;Monday: 09:00 - 17:00;Tuesday: 09:00 - 17:00;Wednesday: 09:00 - 17:00;Thursday: 09:00 - 17:00;Friday: 09:00 - 17:00;Saturday: 09:00 - 12:00"
"https://key.com/","https://www.key.com/locations/ct/new-haven/BRCH32900713/201-grand-avenue","KeyBank Branch in New Haven, CT","201 Grand Avenue","New Haven","CT","06513","US","BRCH32900713","203-562-4037","Branch","41.309428","-72.895161","Sunday: Closed;Monday: 09:00 - 16:00;Tuesday: 09:00 - 16:00;Wednesday: 09:00 - 16:00;Thursday: 09:00 - 17:00;Friday: 09:00 - 17:00;Saturday: 09:00 - 12:00"
"https://key.com/","https://www.key.com/locations/ct/manchester/BRCH32900750/923-main-street","KeyBank Branch in Manchester, CT","923 Main Street","Manchester","CT","06040","US","BRCH32900750","860-645-2627","Branch","41.769540","-72.520313","Sunday: Closed;Monday: 09:00 - 16:00;Tuesday: 09:00 - 16:00;Wednesday: 09:00 - 16:00;Thursday: 09:00 - 17:00;Friday: 09:00 - 17:00;Saturday: Closed"
"https://key.com/","https://www.key.com/locations/ct/new-haven/MCD32900930/195-church-street","Key Private Bank office in New Haven, CT","195 Church Street","New Haven","CT","06510","US","MCD32900930","203-781-5105","Private Bank","41.307746","-72.923737","Sunday: Closed;Monday: 08:00 - 16:30;Tuesday: 08:00 - 16:30;Wednesday: 08:00 - 16:30;Thursday: 08:00 - 16:30;Friday: 08:00 - 16:30;Saturday: Closed"
"https://key.com/","https://www.key.com/locations/ct/manchester/BRCH32900766/344-w-middle-turnpike","KeyBank Branch in Manchester, CT","344 W Middle Turnpike","Manchester","CT","06040","US","BRCH32900766","860-646-8300","Branch","41.780669","-72.538745","Sunday: Closed;Monday: 09:00 - 17:00;Tuesday: 09:00 - 17:00;Wednesday: 09:00 - 17:00;Thursday: 09:00 - 17:00;Friday: 09:00 - 17:00;Saturday: 09:00 - 12:00"
"https://key.com/","https://www.key.com/locations/ct/hebron/BRCH32900777/31-main-street","KeyBank Branch in Hebron, CT","31 Main Street","Hebron","CT","06248","US","BRCH32900777","860-228-4485","Branch","41.659041","-72.363427","Sunday: Closed;Monday: 09:00 - 17:00;Tuesday: 09:00 - 17:00;Wednesday: 09:00 - 17:00;Thursday: 09:00 - 17:00;Friday: 09:00 - 17:00;Saturday: 09:00 - 12:00"
"https://key.com/","https://www.key.com/locations/ct/norwalk/MCD32900937/40-richards-ave--5th-fl","Key Private Bank office in Norwalk, CT","40 Richards Ave  5th Fl","Norwalk","CT","06854","US","MCD32900937","203-854-3418","Private Bank","41.092186","-73.449864","Sunday: Closed;Monday: 08:00 - 16:30;Tuesday: 08:00 - 16:30;Wednesday: 08:00 - 16:30;Thursday: 08:00 - 16:30;Friday: 08:00 - 16:30;Saturday: Closed"
"https://key.com/","https://www.key.com/locations/ct/new-haven/BRCH32900694/18-tower-lane","KeyBank Branch in New Haven, CT","18 Tower Lane","New Haven","CT","06519","US","BRCH32900694","203-401-4226","Branch","41.301163","-72.928195","Sunday: Closed;Monday: Closed;Tuesday: 09:00 - 11:00;Wednesday: Closed;Thursday: 09:00 - 11:00;Friday: Closed;Saturday: Closed"
"https://key.com/","https://www.key.com/locations/ct/milford/BRCH32900747/68-south-broad-street","KeyBank Branch in Milford, CT","68 South Broad Street","Milford","CT","06461","US","BRCH32900747","203-301-6340","Branch","41.221282","-73.057989","Sunday: Closed;Monday: 09:00 - 16:00;Tuesday: 09:00 - 16:00;Wednesday: 09:00 - 16:00;Thursday: 09:00 - 17:00;Friday: 09:00 - 17:00;Saturday: 09:00 - 12:00"
"https://key.com/","https://www.key.com/locations/ct/norwalk/BRCH32900819/79-new-canaan-avenue","KeyBank Branch in Norwalk, CT","79 New Canaan Avenue","Norwalk","CT","06850","US","BRCH32900819","203-847-3600","Branch","41.126599","-73.431009","Sunday: Closed;Monday: 09:00 - 16:00;Tuesday: 09:00 - 16:00;Wednesday: 09:00 - 16:00;Thursday: 09:00 - 17:00;Friday: 09:00 - 17:00;Saturday: 09:00 - 12:00"
"https://key.com/","https://www.key.com/locations/ct/old-saybrook/BRCH32900740/20-main-street","KeyBank Branch in Old Saybrook, CT","20 Main Street","Old Saybrook","CT","06475","US","BRCH32900740","860-388-4667","Branch","41.296831","-72.376543","Sunday: Closed;Monday: 09:00 - 16:00;Tuesday: 09:00 - 16:00;Wednesday: 09:00 - 16:00;Thursday: 09:00 - 17:00;Friday: 09:00 - 17:00;Saturday: 09:00 - 12:00"
"https://key.com/","https://www.key.com/locations/ct/orange/BRCH32900728/34-old-tavern-road","KeyBank Branch in Orange, CT","34 Old Tavern Road","Orange","CT","06477","US","BRCH32900728","203-795-3542","Branch","41.267328","-73.002805","Sunday: Closed;Monday: 09:00 - 17:00;Tuesday: 09:00 - 17:00;Wednesday: 09:00 - 17:00;Thursday: 09:00 - 17:00;Friday: 09:00 - 17:00;Saturday: 09:00 - 12:00"
"https://key.com/","https://www.key.com/locations/ct/north-branford/BRCH32900731/1715-foxon-road","KeyBank Branch in North Branford, CT","1715 Foxon Road","North Branford","CT","06471","US","BRCH32900731","203-315-4008","Branch","41.328190","-72.765183","Sunday: Closed;Monday: 09:00 - 16:00;Tuesday: 09:00 - 16:00;Wednesday: 09:00 - 16:00;Thursday: 09:00 - 17:00;Friday: 09:00 - 17:00;Saturday: 09:00 - 12:00"
"https://key.com/","https://www.key.com/locations/ct/north-haven/BRCH32900718/110-washington-avenue","KeyBank Branch in North Haven, CT","110 Washington Avenue","North Haven","CT","06473","US","BRCH32900718","203-234-6890","Branch","41.394817","-72.855774","Sunday: Closed;Monday: 09:00 - 17:00;Tuesday: 09:00 - 17:00;Wednesday: 09:00 - 17:00;Thursday: 09:00 - 17:00;Friday: 09:00 - 17:00;Saturday: 09:00 - 12:00"
"https://key.com/","https://www.key.com/locations/ak/juneau/BRCH02420041/234-seward-st","KeyBank Branch in Juneau, AK","234 Seward St","Juneau","AK","99801-1236","US","BRCH02420041","844-433-2067","Branch","58.301373","-134.409271","Sunday: Closed;Monday: 09:00 - 17:00;Tuesday: 09:00 - 17:00;Wednesday: 09:00 - 17:00;Thursday: 09:00 - 17:00;Friday: 09:00 - 17:00;Saturday: Closed"
"https://key.com/","https://www.key.com/locations/ct/plainville/BRCH32900687/133-east-main-st","KeyBank Branch in Plainville, CT","133 East Main St","Plainville","CT","06062","US","BRCH32900687","860-410-1799","Branch","41.674530","-72.859351","Sunday: Closed;Monday: 09:00 - 17:00;Tuesday: 09:00 - 17:00;Wednesday: 09:00 - 17:00;Thursday: 09:00 - 17:00;Friday: 09:00 - 17:00;Saturday: 09:00 - 12:00"
"https://key.com/","https://www.key.com/locations/ct/putnam/BRCH32900798/163-providence-street","KeyBank Branch in Putnam, CT","163 Providence Street","Putnam","CT","06260","US","BRCH32900798","860-963-2265","Branch","41.923796","-71.908703","Sunday: Closed;Monday: 09:00 - 17:00;Tuesday: 09:00 - 17:00;Wednesday: 09:00 - 17:00;Thursday: 09:00 - 17:00;Friday: 09:00 - 17:00;Saturday: 09:00 - 12:00"
"https://key.com/","https://www.key.com/locations/ct/new-haven/BRCH32900711/195-church-street","KeyBank Branch in New Haven, CT","195 Church Street","New Haven","CT","06510","US","BRCH32900711","203-789-2781","Branch","41.307746","-72.923737","Sunday: Closed;Monday: 09:00 - 17:00;Tuesday: 09:00 - 17:00;Wednesday: 09:00 - 17:00;Thursday: 09:00 - 17:00;Friday: 09:00 - 17:00;Saturday: Closed"
"https://key.com/","https://www.key.com/locations/ct/stafford-springs/BRCH32900813/2-middle-river-drive","KeyBank Branch in Stafford Springs, CT","2 Middle River Drive","Stafford Springs","CT","06076","US","BRCH32900813","860-684-4241","Branch","41.965506","-72.323342","Sunday: Closed;Monday: 09:00 - 17:00;Tuesday: 09:00 - 17:00;Wednesday: 09:00 - 17:00;Thursday: 09:00 - 17:00;Friday: 09:00 - 17:00;Saturday: 09:00 - 12:00"
"https://key.com/","https://www.key.com/locations/ct/stamford/BRCH32900780/2386-summer-street","KeyBank Branch in Stamford, CT","2386 Summer Street","Stamford","CT","06905","US","BRCH32900780","203-653-3031","Branch","41.067742","-73.547391","Sunday: Closed;Monday: 09:00 - 16:00;Tuesday: 09:00 - 16:00;Wednesday: 09:00 - 16:00;Thursday: 09:00 - 17:00;Friday: 09:00 - 17:00;Saturday: 09:00 - 12:00"
"https://key.com/","https://www.key.com/locations/ct/shelton/BRCH32900700/704-bridgeport-ave","KeyBank Branch in Shelton, CT","704 Bridgeport Ave","Shelton","CT","06484","US","BRCH32900700","203-929-2357","Branch","41.275070","-73.122822","Sunday: Closed;Monday: 09:00 - 16:00;Tuesday: 09:00 - 16:00;Wednesday: 09:00 - 16:00;Thursday: 09:00 - 17:00;Friday: 09:00 - 17:00;Saturday: 09:00 - 12:00"
"https://key.com/","https://www.key.com/locations/ct/stamford/BRCH32900691/721-canal-st","KeyBank Branch in Stamford, CT","721 Canal St","Stamford","CT","06902","US","BRCH32900691","203-905-4185","Branch","41.044238","-73.532631","Sunday: Closed;Monday: 09:00 - 16:00;Tuesday: 09:00 - 16:00;Wednesday: 09:00 - 16:00;Thursday: 09:00 - 17:00;Friday: 09:00 - 17:00;Saturday: 09:00 - 12:00"
"https://key.com/","https://www.key.com/locations/ct/south-windsor/BRCH32900768/481-buckland-road","KeyBank Branch in South Windsor, CT","481 Buckland Road","South Windsor","CT","06074","US","BRCH32900768","860-644-1501","Branch","41.824071","-72.553531","Sunday: Closed;Monday: 09:00 - 17:00;Tuesday: 09:00 - 17:00;Wednesday: 09:00 - 17:00;Thursday: 09:00 - 17:00;Friday: 09:00 - 17:00;Saturday: 09:00 - 12:00"
"https://key.com/","https://www.key.com/locations/ct/stamford/BRCH32900815/1042-hope-street","KeyBank Branch in Stamford, CT","1042 Hope Street","Stamford","CT","06907","US","BRCH32900815","203-978-0802","Branch","41.094302","-73.518494","Sunday: Closed;Monday: 09:00 - 16:00;Tuesday: 09:00 - 16:00;Wednesday: 09:00 - 16:00;Thursday: 09:00 - 17:00;Friday: 09:00 - 17:00;Saturday: 09:00 - 12:00"
"https://key.com/","https://www.key.com/locations/ct/storrs/BRCH32900759/596-middle-turnpike","KeyBank Branch in Storrs, CT","596 Middle Turnpike","Storrs","CT","06268","US","BRCH32900759","860-487-7025","Branch","41.825549","-72.269871","Sunday: Closed;Monday: 09:00 - 17:00;Tuesday: 09:00 - 17:00;Wednesday: 09:00 - 17:00;Thursday: 09:00 - 17:00;Friday: 09:00 - 17:00;Saturday: 09:00 - 12:00"
"https://key.com/","https://www.key.com/locations/ct/west-hartford/BRCH32900762/55-south-main-st","KeyBank Branch in West Hartford, CT","55 South Main St.","West Hartford","CT","06107","US","BRCH32900762","860-313-6240","Branch","41.758438","-72.743136","Sunday: Closed;Monday: 09:00 - 17:00;Tuesday: 09:00 - 17:00;Wednesday: 09:00 - 17:00;Thursday: 09:00 - 17:00;Friday: 09:00 - 17:00;Saturday: 09:00 - 12:00"
"https://key.com/","https://www.key.com/locations/ct/vernon/BRCH32900814/348-hartford-turnpike","KeyBank Branch in Vernon, CT","348 Hartford Turnpike","Vernon","CT","06066","US","BRCH32900814","860-871-0035","Branch","41.827004","-72.488423","Sunday: Closed;Monday: 09:00 - 17:00;Tuesday: 09:00 - 17:00;Wednesday: 09:00 - 17:00;Thursday: 09:00 - 17:00;Friday: 09:00 - 18:00;Saturday: 09:00 - 12:00"
"https://key.com/","https://www.key.com/locations/ct/westbrook/BRCH32900744/1238-boston-post-road","KeyBank Branch in Westbrook, CT","1238 Boston Post Road","Westbrook","CT","06498","US","BRCH32900744","860-399-7365","Branch","41.285472","-72.447199","Sunday: Closed;Monday: 09:00 - 17:00;Tuesday: 09:00 - 17:00;Wednesday: 09:00 - 17:00;Thursday: 09:00 - 17:00;Friday: 09:00 - 17:00;Saturday: Closed"
"https://key.com/","https://www.key.com/locations/ct/wallingford/BRCH32900739/741-north-colony-road","KeyBank Branch in Wallingford, CT","741 North Colony Road","Wallingford","CT","06492","US","BRCH32900739","203-269-4434","Branch","41.474346","-72.814549","Sunday: Closed;Monday: 09:00 - 17:00;Tuesday: 09:00 - 17:00;Wednesday: 09:00 - 17:00;Thursday: 09:00 - 17:00;Friday: 09:00 - 17:00;Saturday: 09:00 - 12:00"
"https://key.com/","https://www.key.com/locations/ct/west-haven/BRCH32900725/20-ocean-avenue","KeyBank Branch in West Haven, CT","20 Ocean Avenue","West Haven","CT","06516","US","BRCH32900725","203-479-8769","Branch","41.236005","-72.986725","Sunday: Closed;Monday: 09:00 - 16:00;Tuesday: 09:00 - 16:00;Wednesday: 09:00 - 16:00;Thursday: 09:00 - 17:00;Friday: 09:00 - 17:00;Saturday: Closed"
"https://key.com/","https://www.key.com/locations/ct/westport/BRCH32900785/1071-post-road-east","KeyBank Branch in Westport, CT","1071 Post Road East","Westport","CT","06880","US","BRCH32900785","203-341-9698","Branch","41.139414","-73.328460","Sunday: Closed;Monday: 09:00 - 16:00;Tuesday: 09:00 - 16:00;Wednesday: 09:00 - 16:00;Thursday: 09:00 - 17:00;Friday: 09:00 - 17:00;Saturday: Closed"
"https://key.com/","https://www.key.com/locations/ct/west-haven/BRCH32900714/322-main-street","KeyBank Branch in West Haven, CT","322 Main Street","West Haven","CT","06516","US","BRCH32900714","203-931-3030","Branch","41.272572","-72.948672","Sunday: Closed;Monday: 09:00 - 17:00;Tuesday: 09:00 - 17:00;Wednesday: 09:00 - 17:00;Thursday: 09:00 - 17:00;Friday: 09:00 - 17:00;Saturday: 09:00 - 12:00"
"https://key.com/","https://www.key.com/locations/ct/tolland/BRCH32900772/215-merrow-road","KeyBank Branch in Tolland, CT","215 Merrow Road","Tolland","CT","06084","US","BRCH32900772","860-870-7066","Branch","41.860052","-72.351849","Sunday: Closed;Monday: 09:00 - 17:00;Tuesday: 09:00 - 17:00;Wednesday: 09:00 - 17:00;Thursday: 09:00 - 17:00;Friday: 09:00 - 17:00;Saturday: 09:00 - 12:00"
"https://key.com/","https://www.key.com/locations/ct/wethersfield/BRCH32900804/709-silas-deane-highway","KeyBank Branch in Wethersfield, CT","709 Silas Deane Highway","Wethersfield","CT","06109","US","BRCH32900804","860-571-6333","Branch","41.705315","-72.661650","Sunday: Closed;Monday: 09:00 - 17:00;Tuesday: 09:00 - 17:00;Wednesday: 09:00 - 17:00;Thursday: 09:00 - 17:00;Friday: 09:00 - 17:00;Saturday: 09:00 - 12:00"
"https://key.com/","https://www.key.com/locations/ct/yalesville/BRCH32900746/316-main-street","KeyBank Branch in Yalesville, CT","316 Main Street","Yalesville","CT","06492","US","BRCH32900746","203-679-4240","Branch","41.484823","-72.823066","Sunday: Closed;Monday: 09:00 - 17:00;Tuesday: 09:00 - 17:00;Wednesday: 09:00 - 17:00;Thursday: 09:00 - 17:00;Friday: 09:00 - 17:00;Saturday: 09:00 - 12:00"
"https://key.com/","https://www.key.com/locations/fl/ft-myers/MCD01010663/12830-university-dr-ste-100","Key Private Bank office in Ft Myers, FL","12830 University Dr Ste 100","Ft Myers","FL","33907","US","MCD01010663","239-466-2500","Private Bank","26.555849","-81.884125","Sunday: Closed;Monday: 09:00 - 16:00;Tuesday: 09:00 - 16:00;Wednesday: 09:00 - 16:00;Thursday: 09:00 - 16:00;Friday: 09:00 - 16:00;Saturday: Closed"
"https://key.com/","https://www.key.com/locations/ct/willimantic/BRCH32900756/6-storrs-road","KeyBank Branch in Willimantic, CT","6 Storrs Road","Willimantic","CT","06226","US","BRCH32900756","860-456-7155","Branch","41.728385","-72.200991","Sunday: Closed;Monday: 09:00 - 17:00;Tuesday: 09:00 - 17:00;Wednesday: 09:00 - 17:00;Thursday: 09:00 - 17:00;Friday: 09:00 - 17:00;Saturday: 09:00 - 12:00"
"https://key.com/","https://www.key.com/locations/fl/naples/MCD01010662/3777-tamiami-tr-n-ste-100","Key Private Bank office in Naples, FL","3777 Tamiami Tr N Ste 100","Naples","FL","34103","US","MCD01010662","239-659-8800","Private Bank","26.191809","-81.800200","Sunday: Closed;Monday: 09:00 - 16:00;Tuesday: 09:00 - 16:00;Wednesday: 09:00 - 16:00;Thursday: 09:00 - 16:00;Friday: 09:00 - 16:00;Saturday: Closed"
"https://key.com/","https://www.key.com/locations/id/blackfoot/BRCH12560103/15-north-ash","KeyBank Branch in Blackfoot, ID","15 North Ash","Blackfoot","ID","83221","US","BRCH12560103","208-785-2100","Branch","43.190121","-112.346890","Sunday: Closed;Monday: 09:00 - 17:00;Tuesday: 09:00 - 17:00;Wednesday: 09:00 - 17:00;Thursday: 09:00 - 17:00;Friday: 09:00 - 17:30;Saturday: Closed"
"https://key.com/","https://www.key.com/locations/ct/woodbridge/BRCH32900724/211-amity-road","KeyBank Branch in Woodbridge, CT","211 Amity Road","Woodbridge","CT","06525","US","BRCH32900724","203-389-4394","Branch","41.341237","-72.982204","Sunday: Closed;Monday: 09:00 - 17:00;Tuesday: 09:00 - 17:00;Wednesday: 09:00 - 17:00;Thursday: 09:00 - 17:00;Friday: 09:00 - 17:00;Saturday: 09:00 - 12:00"
"https://key.com/","https://www.key.com/locations/id/boise/BRCH12560444/8157-fairview-ave","KeyBank Branch in Boise, ID","8157 Fairview Ave","Boise","ID","83704","US","BRCH12560444","208-334-7440","Branch","43.619049","-116.283615","Sunday: Closed;Monday: 09:00 - 17:00;Tuesday: 09:00 - 17:00;Wednesday: 09:00 - 17:00;Thursday: 09:00 - 17:00;Friday: 09:00 - 18:00;Saturday: 09:00 - 12:00"
"https://key.com/","https://www.key.com/locations/id/boise/MCD12560590/702-w-idaho-st-suite-1200","Key Private Bank office in Boise, ID","702 W Idaho St. Suite 1200","Boise","ID","83702","US","MCD12560590","800-777-5391","Private Bank","43.616170","-116.201630","Sunday: Closed;Monday: 09:00 - 17:00;Tuesday: 09:00 - 17:00;Wednesday: 09:00 - 17:00;Thursday: 09:00 - 17:00;Friday: 09:00 - 17:00;Saturday: Closed"
"https://key.com/","https://www.key.com/locations/fl/palm-beach-gardens/MCD01010661/3507-kyoto-gardens-dr-suite-100","Key Private Bank office in Palm Beach Gardens, FL","3507 Kyoto Gardens Dr Suite 100","Palm Beach Gardens","FL","33410","US","MCD01010661","561-775-6527","Private Bank","26.848068","-80.091408","Sunday: Closed;Monday: 09:00 - 16:00;Tuesday: 09:00 - 16:00;Wednesday: 09:00 - 16:00;Thursday: 09:00 - 16:00;Friday: 09:00 - 16:00;Saturday: Closed"
"https://key.com/","https://www.key.com/locations/id/boise/BRCH12560471/4920-overland-rd","KeyBank Branch in Boise, ID","4920 Overland Rd","Boise","ID","83705","US","BRCH12560471","208-334-7100","Branch","43.590199","-116.242493","Sunday: Closed;Monday: 09:00 - 17:00;Tuesday: 09:00 - 17:00;Wednesday: 09:00 - 17:00;Thursday: 09:00 - 17:00;Friday: 09:00 - 18:00;Saturday: 09:00 - 12:00"
"https://key.com/","https://www.key.com/locations/id/boise/BRCH12560401/702-w-idaho-st","KeyBank Branch in Boise, ID","702 W Idaho St","Boise","ID","83702","US","BRCH12560401","208-364-8510","Branch","43.616474","-116.201332","Sunday: Closed;Monday: 09:00 - 17:00;Tuesday: 09:00 - 17:00;Wednesday: 09:00 - 17:00;Thursday: 09:00 - 17:00;Friday: 09:00 - 17:00;Saturday: Closed"
"https://key.com/","https://www.key.com/locations/id/burley/BRCH12560302/1301-overland","KeyBank Branch in Burley, ID","1301 Overland","Burley","ID","83318","US","BRCH12560302","208-678-9051","Branch","42.536472","-113.792839","Sunday: Closed;Monday: 09:00 - 17:00;Tuesday: 09:00 - 17:00;Wednesday: 09:00 - 17:00;Thursday: 09:00 - 17:00;Friday: 09:00 - 17:30;Saturday: Closed"
"https://key.com/","https://www.key.com/locations/id/caldwell/BRCH12560406/309-s-9th-ave","KeyBank Branch in Caldwell, ID","309 S 9th Ave","Caldwell","ID","83605","US","BRCH12560406","208-459-6315","Branch","43.663864","-116.687882","Sunday: Closed;Monday: 09:00 - 17:00;Tuesday: 09:00 - 17:00;Wednesday: 09:00 - 17:00;Thursday: 09:00 - 17:00;Friday: 09:00 - 18:00;Saturday: 09:00 - 12:00"
"https://key.com/","https://www.key.com/locations/id/eagle/BRCH12560278/3314-e-chinden-blvd","KeyBank Branch in Eagle, ID","3314 E Chinden Blvd","Eagle","ID","83616","US","BRCH12560278","208-938-6400","Branch","43.663032","-116.353117","Sunday: Closed;Monday: 09:00 - 17:00;Tuesday: 09:00 - 17:00;Wednesday: 09:00 - 17:00;Thursday: 09:00 - 17:00;Friday: 09:00 - 18:00;Saturday: Closed"
"https://key.com/","https://www.key.com/locations/id/eagle/BRCH12560080/3144-east-state-st","KeyBank Branch in Eagle, ID","3144 East State St","Eagle","ID","83616","US","BRCH12560080","208-939-2050","Branch","43.683650","-116.316062","Sunday: Closed;Monday: 09:00 - 17:00;Tuesday: 09:00 - 17:00;Wednesday: 09:00 - 17:00;Thursday: 09:00 - 17:00;Friday: 09:00 - 18:00;Saturday: Closed"
"https://key.com/","https://www.key.com/locations/id/emmett/BRCH12560454/1024-s-washington-ave","KeyBank Branch in Emmett, ID","1024 S Washington Ave","Emmett","ID","83617","US","BRCH12560454","208-365-5026","Branch","43.866167","-116.499958","Sunday: Closed;Monday: 09:00 - 17:00;Tuesday: 09:00 - 17:00;Wednesday: 09:00 - 17:00;Thursday: 09:00 - 17:00;Friday: 09:00 - 18:00;Saturday: Closed"
"https://key.com/","https://www.key.com/locations/id/meridian/BRCH12560447/1650-e-fairview-ave","KeyBank Branch in Meridian, ID","1650 E Fairview Ave","Meridian","ID","83642","US","BRCH12560447","208-884-3050","Branch","43.619843","-116.373917","Sunday: Closed;Monday: 09:00 - 17:00;Tuesday: 09:00 - 17:00;Wednesday: 09:00 - 17:00;Thursday: 09:00 - 17:00;Friday: 09:00 - 18:00;Saturday: 09:00 - 12:00"
"https://key.com/","https://www.key.com/locations/id/idaho-falls/BRCH12560113/501-w-broadway-st","KeyBank Branch in Idaho Falls, ID","501 W Broadway St","Idaho Falls","ID","83402-3635","US","BRCH12560113","208-525-6200","Branch","43.491798","-112.043488","Sunday: Closed;Monday: 09:00 - 17:00;Tuesday: 09:00 - 17:00;Wednesday: 09:00 - 17:00;Thursday: 09:00 - 17:00;Friday: 09:00 - 18:00;Saturday: Closed"
"https://key.com/","https://www.key.com/locations/id/driggs/BRCH12560117/15-n-main-street","KeyBank Branch in Driggs, ID","15 N. Main Street","Driggs","ID","83422","US","BRCH12560117","208-535-3172","Branch","43.723354","-111.110626","Sunday: Closed;Monday: 09:00 - 17:00;Tuesday: 09:00 - 17:00;Wednesday: 09:00 - 17:00;Thursday: 09:00 - 17:00;Friday: 09:00 - 18:00;Saturday: Closed"
"https://key.com/","https://www.key.com/locations/id/nampa/BRCH12560451/1020-caldwell-blvd","KeyBank Branch in Nampa, ID","1020 Caldwell Blvd","Nampa","ID","83651-1718","US","BRCH12560451","208-466-8958","Branch","43.599396","-116.593491","Sunday: Closed;Monday: 09:00 - 17:00;Tuesday: 09:00 - 17:00;Wednesday: 09:00 - 17:00;Thursday: 09:00 - 17:00;Friday: 09:00 - 18:00;Saturday: 09:00 - 12:00"
"https://key.com/","https://www.key.com/locations/id/meridian/BRCH12560612/3055-e-overland-rd","KeyBank Branch in Meridian, ID","3055 E Overland Rd","Meridian","ID","83642","US","BRCH12560612","208-898-5061","Branch","43.589947","-116.356537","Sunday: Closed;Monday: 09:00 - 17:00;Tuesday: 09:00 - 17:00;Wednesday: 09:00 - 17:00;Thursday: 09:00 - 17:00;Friday: 09:00 - 18:00;Saturday: Closed"
"https://key.com/","https://www.key.com/locations/id/fruitland/BRCH12560450/1515-n-whitley-dr","KeyBank Branch in Fruitland, ID","1515 N Whitley Dr","Fruitland","ID","83619","US","BRCH12560450","208-452-3823","Branch","44.025005","-116.924042","Sunday: Closed;Monday: 09:00 - 17:00;Tuesday: 09:00 - 17:00;Wednesday: 09:00 - 17:00;Thursday: 09:00 - 17:00;Friday: 09:00 - 18:00;Saturday: Closed"
"https://key.com/","https://www.key.com/locations/id/idaho-falls/BRCH12560119/2655-east-17th","KeyBank Branch in Idaho Falls, ID","2655 East 17th","Idaho Falls","ID","83406","US","BRCH12560119","208-525-6315","Branch","43.482395","-111.981010","Sunday: Closed;Monday: 09:00 - 17:00;Tuesday: 09:00 - 17:00;Wednesday: 09:00 - 17:00;Thursday: 09:00 - 17:00;Friday: 09:00 - 18:00;Saturday: Closed"
"https://key.com/","https://www.key.com/locations/id/pocatello/BRCH12560285/910-yellowstone-ave","KeyBank Branch in Pocatello, ID","910 Yellowstone Ave","Pocatello","ID","83201","US","BRCH12560285","208-234-5150","Branch","42.891735","-112.451337","Sunday: Closed;Monday: 09:00 - 17:00;Tuesday: 09:00 - 17:00;Wednesday: 09:00 - 17:00;Thursday: 09:00 - 17:00;Friday: 09:00 - 18:00;Saturday: Closed"
"https://key.com/","https://www.key.com/locations/id/rexburg/BRCH12560114/110-e-main-st","KeyBank Branch in Rexburg, ID","110 E Main St","Rexburg","ID","83440","US","BRCH12560114","208-356-5454","Branch","43.825672","-111.780502","Sunday: Closed;Monday: 09:00 - 17:00;Tuesday: 09:00 - 17:00;Wednesday: 09:00 - 17:00;Thursday: 09:00 - 17:00;Friday: 09:00 - 18:00;Saturday: Closed"
"https://key.com/","https://www.key.com/locations/id/twin-falls/BRCH12560361/1665-blue-lakes-blvd-north","KeyBank Branch in Twin Falls, ID","1665 Blue Lakes Blvd North","Twin Falls","ID","83301","US","BRCH12560361","208-733-3121","Branch","42.591488","-114.460732","Sunday: Closed;Monday: 09:00 - 17:00;Tuesday: 09:00 - 17:00;Wednesday: 09:00 - 17:00;Thursday: 09:00 - 17:00;Friday: 09:00 - 18:00;Saturday: Closed"
"https://key.com/","https://www.key.com/locations/id/pocatello/BRCH12560200/105-n-arthur-ave","KeyBank Branch in Pocatello, ID","105 N Arthur Ave","Pocatello","ID","83204","US","BRCH12560200","208-239-5070","Branch","42.861532","-112.451995","Sunday: Closed;Monday: 09:00 - 17:00;Tuesday: 09:00 - 17:00;Wednesday: 09:00 - 17:00;Thursday: 09:00 - 17:00;Friday: 09:00 - 17:30;Saturday: Closed"
"https://key.com/","https://www.key.com/locations/in/angola/BRCH01010539/1901-n-wayne-st","KeyBank Branch in Angola, IN","1901 N Wayne St","Angola","IN","46703","US","BRCH01010539","260-665-1153","Branch","41.657742","-85.000069","Sunday: Closed;Monday: 09:00 - 17:00;Tuesday: 09:00 - 17:00;Wednesday: 09:00 - 17:00;Thursday: 09:00 - 17:00;Friday: 09:00 - 17:00;Saturday: 09:00 - 12:00"
"https://key.com/","https://www.key.com/locations/id/boise/BRCH12560446/6700-w-state-st","KeyBank Branch in Boise, ID","6700 W State St","Boise","ID","83714","US","BRCH12560446","208-334-7974","Branch","43.664450","-116.273051","Sunday: Closed;Monday: 09:00 - 17:00;Tuesday: 09:00 - 17:00;Wednesday: 09:00 - 17:00;Thursday: 09:00 - 17:00;Friday: 09:00 - 18:00;Saturday: 09:00 - 12:00"
"https://key.com/","https://www.key.com/locations/in/bristol/BRCH01010958/121-e-vistula","KeyBank Branch in Bristol, IN","121 E Vistula","Bristol","IN","46507","US","BRCH01010958","574-848-5302","Branch","41.721478","-85.816878","Sunday: Closed;Monday: 09:00 - 17:00;Tuesday: 09:00 - 17:00;Wednesday: 09:00 - 17:00;Thursday: 09:00 - 17:00;Friday: 09:00 - 17:00;Saturday: 09:00 - 12:00"
"https://key.com/","https://www.key.com/locations/in/anderson/BRCH01010906/5457-scatterfield-rd","KeyBank Branch in Anderson, IN","5457 Scatterfield Rd","Anderson","IN","46013","US","BRCH01010906","765-646-6660","Branch","40.059986","-85.653503","Sunday: Closed;Monday: 10:00 - 16:00;Tuesday: 10:00 - 16:00;Wednesday: 10:00 - 16:00;Thursday: 10:00 - 16:00;Friday: 10:00 - 16:00;Saturday: Closed"
"https://key.com/","https://www.key.com/locations/in/cicero/BRCH01010936/100-s-peru-st","KeyBank Branch in Cicero, IN","100 S Peru St","Cicero","IN","46034","US","BRCH01010936","317-376-1055","Branch","40.130329","-86.013985","Sunday: Closed;Monday: 10:00 - 16:00;Tuesday: 10:00 - 16:00;Wednesday: 10:00 - 16:00;Thursday: 10:00 - 16:00;Friday: 10:00 - 16:00;Saturday: Closed"
"https://key.com/","https://www.key.com/locations/in/brownsburg/BRCH01010056/757-north-green-street","KeyBank Branch in Brownsburg, IN","757 North Green Street","Brownsburg","IN","46112","US","BRCH01010056","317-456-5870","Branch","39.854299","-86.393585","Sunday: Closed;Monday: 10:00 - 16:00;Tuesday: 10:00 - 16:00;Wednesday: 10:00 - 16:00;Thursday: 10:00 - 16:00;Friday: 10:00 - 16:00;Saturday: Closed"
"https://key.com/","https://www.key.com/locations/in/elkhart/BRCH01010541/101-s-main-st","KeyBank Branch in Elkhart, IN","101 S Main St","Elkhart","IN","46516","US","BRCH01010541","574-293-0481","Branch","41.686905","-85.973778","Sunday: Closed;Monday: 09:00 - 17:00;Tuesday: 09:00 - 17:00;Wednesday: 09:00 - 17:00;Thursday: 09:00 - 17:00;Friday: 09:00 - 17:00;Saturday: Closed"
"https://key.com/","https://www.key.com/locations/in/carmel/BRCH01010937/501-e-carmel-dr","KeyBank Branch in Carmel, IN","501 E Carmel Dr","Carmel","IN","46032","US","BRCH01010937","317-580-9514","Branch","39.961555","-86.117638","Sunday: Closed;Monday: 10:00 - 16:00;Tuesday: 10:00 - 16:00;Wednesday: 10:00 - 16:00;Thursday: 10:00 - 16:00;Friday: 10:00 - 16:00;Saturday: Closed"
"https://key.com/","https://www.key.com/locations/in/avon/BRCH01010167/9192-e-us-highway-36","KeyBank Branch in Avon, IN","9192 E US Highway 36","Avon","IN","46123","US","BRCH01010167","317-273-5925","Branch","39.764194","-86.358200","Sunday: Closed;Monday: 10:00 - 16:00;Tuesday: 10:00 - 16:00;Wednesday: 10:00 - 16:00;Thursday: 10:00 - 16:00;Friday: 10:00 - 16:00;Saturday: Closed"
"https://key.com/","https://www.key.com/locations/in/elkhart/BRCH01010534/3821-s-main-st","KeyBank Branch in Elkhart, IN","3821 S Main St","Elkhart","IN","46517","US","BRCH01010534","574-875-8583","Branch","41.638142","-85.925613","Sunday: Closed;Monday: 09:00 - 17:00;Tuesday: 09:00 - 17:00;Wednesday: 09:00 - 17:00;Thursday: 09:00 - 17:00;Friday: 09:00 - 17:00;Saturday: 09:00 - 12:00"
"https://key.com/","https://www.key.com/locations/in/elkhart/BRCH01010965/1842-e-bristol-st","KeyBank Branch in Elkhart, IN","1842 E Bristol St","Elkhart","IN","46514","US","BRCH01010965","574-262-1612","Branch","41.703030","-85.947601","Sunday: Closed;Monday: 09:00 - 17:00;Tuesday: 09:00 - 17:00;Wednesday: 09:00 - 17:00;Thursday: 09:00 - 17:00;Friday: 09:00 - 17:00;Saturday: 09:00 - 12:00"
"https://key.com/","https://www.key.com/locations/in/elkhart/MCD01010808/101-s-main-st-2nd-flr","Key Private Bank office in Elkhart, IN","101 S Main St 2nd Flr","Elkhart","IN","46516","US","MCD01010808","800-370-3568","Private Bank","41.686905","-85.973778","Sunday: Closed;Monday: 09:00 - 17:00;Tuesday: 09:00 - 17:00;Wednesday: 09:00 - 17:00;Thursday: 09:00 - 17:00;Friday: 09:00 - 17:00;Saturday: Closed"
"https://key.com/","https://www.key.com/locations/in/elkhart/BRCH01010959/138-w-hively-ave","KeyBank Branch in Elkhart, IN","138 W. Hively Ave","Elkhart","IN","46517","US","BRCH01010959","574-295-8351","Branch","41.659478","-85.966341","Sunday: Closed;Monday: 09:00 - 17:00;Tuesday: 09:00 - 17:00;Wednesday: 09:00 - 17:00;Thursday: 09:00 - 17:00;Friday: 09:00 - 17:00;Saturday: 09:00 - 12:00"
"https://key.com/","https://www.key.com/locations/in/indianapolis/BRCH01010160/5868-e-71st-street","KeyBank Branch in Indianapolis, IN","5868 E 71st Street","Indianapolis","IN","46220","US","BRCH01010160","317-841-2120","Branch","39.884659","-86.066734","Sunday: Closed;Monday: 10:00 - 16:00;Tuesday: 10:00 - 16:00;Wednesday: 10:00 - 16:00;Thursday: 10:00 - 16:00;Friday: 10:00 - 16:00;Saturday: Closed"
"https://key.com/","https://www.key.com/locations/in/goshen/BRCH01010526/221-n-main-st","KeyBank Branch in Goshen, IN","221 N Main St","Goshen","IN","46526","US","BRCH01010526","574-535-2200","Branch","41.588202","-85.834608","Sunday: Closed;Monday: 09:00 - 17:00;Tuesday: 09:00 - 17:00;Wednesday: 09:00 - 17:00;Thursday: 09:00 - 17:00;Friday: 09:00 - 17:00;Saturday: 09:00 - 12:00"
"https://key.com/","https://www.key.com/locations/in/elkhart/BRCH01010963/2801-cassopolis-st","KeyBank Branch in Elkhart, IN","2801 Cassopolis St","Elkhart","IN","46514","US","BRCH01010963","574-264-4525","Branch","41.724556","-85.973877","Sunday: Closed;Monday: 09:00 - 17:00;Tuesday: 09:00 - 17:00;Wednesday: 09:00 - 17:00;Thursday: 09:00 - 17:00;Friday: 09:00 - 17:00;Saturday: 09:00 - 12:00"
"https://key.com/","https://www.key.com/locations/in/indianapolis/BRCH01010513/930-n-meridian-st","KeyBank Branch in Indianapolis, IN","930 N Meridian St","Indianapolis","IN","46204","US","BRCH01010513","317-684-4980","Branch","39.779938","-86.157644","Sunday: Closed;Monday: 10:00 - 16:00;Tuesday: 10:00 - 16:00;Wednesday: 10:00 - 16:00;Thursday: 10:00 - 16:00;Friday: 10:00 - 16:00;Saturday: Closed"
"https://key.com/","https://www.key.com/locations/in/franklin/BRCH01010917/1750-northwood-plaza-dr","KeyBank Branch in Franklin, IN","1750 Northwood Plaza Dr","Franklin","IN","46131","US","BRCH01010917","317-736-3166","Branch","39.495602","-86.066017","Sunday: Closed;Monday: 10:00 - 16:00;Tuesday: 10:00 - 16:00;Wednesday: 10:00 - 16:00;Thursday: 10:00 - 16:00;Friday: 10:00 - 16:00;Saturday: Closed"
"https://key.com/","https://www.key.com/locations/in/indianapolis/BRCH01010194/4515-lafayette-road","KeyBank Branch in Indianapolis, IN","4515 Lafayette Road","Indianapolis","IN","46254","US","BRCH01010194","317-216-4675","Branch","39.837231","-86.247208","Sunday: Closed;Monday: 10:00 - 16:00;Tuesday: 10:00 - 16:00;Wednesday: 10:00 - 16:00;Thursday: 10:00 - 16:00;Friday: 10:00 - 16:00;Saturday: Closed"
"https://key.com/","https://www.key.com/locations/in/indianapolis/MCD01010857/10-w-market-st-ste-900","Key Private Bank office in Indianapolis, IN","10 W Market St Ste 900","Indianapolis","IN","46204","US","MCD01010857","888-563-8360","Private Bank","39.768761","-86.159287","Sunday: Closed;Monday: 08:00 - 17:00;Tuesday: 08:00 - 17:00;Wednesday: 08:00 - 17:00;Thursday: 08:00 - 17:00;Friday: 08:00 - 17:00;Saturday: Closed"
"https://key.com/","https://www.key.com/locations/in/indianapolis/BRCH01010064/1305-east-86th-street","KeyBank Branch in Indianapolis, IN","1305 East 86th Street","Indianapolis","IN","46240","US","BRCH01010064","317-613-4414","Branch","39.912121","-86.137978","Sunday: Closed;Monday: 10:00 - 16:00;Tuesday: 10:00 - 16:00;Wednesday: 10:00 - 16:00;Thursday: 10:00 - 16:00;Friday: 10:00 - 16:00;Saturday: Closed"
"https://key.com/","https://www.key.com/locations/in/fishers/BRCH01010930/7450-e-116th-st","KeyBank Branch in Fishers, IN","7450 E 116th St","Fishers","IN","46038-2320","US","BRCH01010930","317-577-4120","Branch","39.957138","-86.037605","Sunday: Closed;Monday: 10:00 - 16:00;Tuesday: 10:00 - 16:00;Wednesday: 10:00 - 16:00;Thursday: 10:00 - 16:00;Friday: 10:00 - 16:00;Saturday: Closed"
"https://key.com/","https://www.key.com/locations/in/indianapolis/BRCH01010956/7447-s-us-hwy-31","KeyBank Branch in Indianapolis, IN","7447 S US Hwy 31","Indianapolis","IN","46227-8542","US","BRCH01010956","317-885-4145","Branch","39.658218","-86.142242","Sunday: Closed;Monday: 10:00 - 16:00;Tuesday: 10:00 - 16:00;Wednesday: 10:00 - 16:00;Thursday: 10:00 - 16:00;Friday: 10:00 - 16:00;Saturday: Closed"
"https://key.com/","https://www.key.com/locations/in/kokomo/BRCH01010951/1151-e-hoffer-st","KeyBank Branch in Kokomo, IN","1151 E Hoffer St","Kokomo","IN","46902","US","BRCH01010951","765-868-3652","Branch","40.465572","-86.118408","Sunday: Closed;Monday: 10:00 - 16:00;Tuesday: 10:00 - 16:00;Wednesday: 10:00 - 16:00;Thursday: 10:00 - 16:00;Friday: 10:00 - 16:00;Saturday: Closed"
"https://key.com/","https://www.key.com/locations/in/mishawaka/BRCH01010512/401-lincolnway-west","KeyBank Branch in Mishawaka, IN","401 Lincolnway West","Mishawaka","IN","46544","US","BRCH01010512","574-254-6166","Branch","41.660763","-86.185043","Sunday: Closed;Monday: 09:00 - 17:00;Tuesday: 09:00 - 17:00;Wednesday: 09:00 - 17:00;Thursday: 09:00 - 17:00;Friday: 09:00 - 17:00;Saturday: Closed"
"https://key.com/","https://www.key.com/locations/in/mishawaka/BRCH01010507/525-w-cleveland-rd","KeyBank Branch in Mishawaka, IN","525 W Cleveland Rd","Mishawaka","IN","46545","US","BRCH01010507","574-334-4020","Branch","41.723808","-86.189260","Sunday: Closed;Monday: 09:00 - 17:00;Tuesday: 09:00 - 17:00;Wednesday: 09:00 - 17:00;Thursday: 09:00 - 17:00;Friday: 09:00 - 17:00;Saturday: 09:00 - 12:00"
"https://key.com/","https://www.key.com/locations/in/noblesville/BRCH01010931/480-sheridan-rd","KeyBank Branch in Noblesville, IN","480 Sheridan Rd","Noblesville","IN","46060","US","BRCH01010931","317-773-0080","Branch","40.049793","-86.025391","Sunday: Closed;Monday: 10:00 - 16:00;Tuesday: 10:00 - 16:00;Wednesday: 10:00 - 16:00;Thursday: 10:00 - 16:00;Friday: 10:00 - 16:00;Saturday: Closed"
"https://key.com/","https://www.key.com/locations/in/martinsville/BRCH01010923/76-s-main-st","KeyBank Branch in Martinsville, IN","76 S Main St","Martinsville","IN","46151","US","BRCH01010923","765-342-7181","Branch","39.426151","-86.429131","Sunday: Closed;Monday: 10:00 - 16:00;Tuesday: 10:00 - 16:00;Wednesday: 10:00 - 16:00;Thursday: 10:00 - 16:00;Friday: 10:00 - 16:00;Saturday: Closed"
"https://key.com/","https://www.key.com/locations/in/nappanee/BRCH01010962/161-e-market-st","KeyBank Branch in Nappanee, IN","161 E Market St","Nappanee","IN","46550","US","BRCH01010962","574-773-3101","Branch","41.442356","-86.000229","Sunday: Closed;Monday: 09:00 - 17:00;Tuesday: 09:00 - 17:00;Wednesday: 09:00 - 17:00;Thursday: 09:00 - 17:00;Friday: 09:00 - 17:00;Saturday: 09:00 - 12:00"
"https://key.com/","https://www.key.com/locations/in/noblesville/BRCH01010520/13279-harrell-pkwy","KeyBank Branch in Noblesville, IN","13279 Harrell Pkwy","Noblesville","IN","46060-3314","US","BRCH01010520","317-770-3100","Branch","39.993221","-85.928574","Sunday: Closed;Monday: 10:00 - 16:00;Tuesday: 10:00 - 16:00;Wednesday: 10:00 - 16:00;Thursday: 10:00 - 16:00;Friday: 10:00 - 16:00;Saturday: Closed"
"https://key.com/","https://www.key.com/locations/in/south-bend/MCD01010801/202-s-michigan-4-flr","Key Private Bank office in South Bend, IN","202 S Michigan 4 Flr","South Bend","IN","46601","US","MCD01010801","574-247-5546","Private Bank","41.674751","-86.249122","Sunday: Closed;Monday: 08:00 - 17:00;Tuesday: 08:00 - 17:00;Wednesday: 08:00 - 17:00;Thursday: 08:00 - 17:00;Friday: 08:00 - 17:00;Saturday: Closed"
"https://key.com/","https://www.key.com/locations/in/plymouth/BRCH01010980/2701-n-michigan-st","KeyBank Branch in Plymouth, IN","2701 N Michigan St","Plymouth","IN","46563","US","BRCH01010980","574-936-4023","Branch","41.365788","-86.314224","Sunday: Closed;Monday: 09:00 - 17:00;Tuesday: 09:00 - 17:00;Wednesday: 09:00 - 17:00;Thursday: 09:00 - 17:00;Friday: 09:00 - 17:00;Saturday: 09:00 - 12:00"
"https://key.com/","https://www.key.com/locations/in/shelbyville/BRCH01010939/1620-e-state-road-44","KeyBank Branch in Shelbyville, IN","1620 E State Road 44","Shelbyville","IN","46176","US","BRCH01010939","317-392-3261","Branch","39.520519","-85.753410","Sunday: Closed;Monday: 10:00 - 16:00;Tuesday: 10:00 - 16:00;Wednesday: 10:00 - 16:00;Thursday: 10:00 - 16:00;Friday: 10:00 - 16:00;Saturday: Closed"
"https://key.com/","https://www.key.com/locations/in/south-bend/BRCH01010501/202-s-michigan-street","KeyBank Branch in South Bend, IN","202 S. Michigan Street","South Bend","IN","46601","US","BRCH01010501","574-237-5220","Branch","41.674751","-86.249122","Sunday: Closed;Monday: 09:00 - 17:00;Tuesday: 09:00 - 17:00;Wednesday: 09:00 - 17:00;Thursday: 09:00 - 17:00;Friday: 09:00 - 17:00;Saturday: Closed"
"https://key.com/","https://www.key.com/locations/in/syracuse/BRCH01010970/816-s-huntington","KeyBank Branch in Syracuse, IN","816 S Huntington","Syracuse","IN","46567","US","BRCH01010970","574-457-4449","Branch","41.411999","-85.745583","Sunday: Closed;Monday: 09:00 - 17:00;Tuesday: 09:00 - 17:00;Wednesday: 09:00 - 17:00;Thursday: 09:00 - 17:00;Friday: 09:00 - 17:00;Saturday: 09:00 - 12:00"
"https://key.com/","https://www.key.com/locations/in/lebanon/BRCH01010944/127-w-main-st","KeyBank Branch in Lebanon, IN","127 W Main St","Lebanon","IN","46052","US","BRCH01010944","765-482-2900","Branch","40.047551","-86.468738","Sunday: Closed;Monday: 10:00 - 16:00;Tuesday: 10:00 - 16:00;Wednesday: 10:00 - 16:00;Thursday: 10:00 - 16:00;Friday: 10:00 - 16:00;Saturday: Closed"
"https://key.com/","https://www.key.com/locations/in/south-bend/BRCH01010503/19730-darden-rd","KeyBank Branch in South Bend, IN","19730 Darden Rd","South Bend","IN","46637","US","BRCH01010503","574-247-2882","Branch","41.730321","-86.249655","Sunday: Closed;Monday: 09:00 - 17:00;Tuesday: 09:00 - 17:00;Wednesday: 09:00 - 17:00;Thursday: 09:00 - 17:00;Friday: 09:00 - 17:00;Saturday: Closed"
"https://key.com/","https://www.key.com/locations/in/warsaw/BRCH01010536/119-e-center-st","KeyBank Branch in Warsaw, IN","119 E Center St","Warsaw","IN","46580","US","BRCH01010536","574-267-2420","Branch","41.238384","-85.855576","Sunday: Closed;Monday: 09:00 - 17:00;Tuesday: 09:00 - 17:00;Wednesday: 09:00 - 17:00;Thursday: 09:00 - 17:00;Friday: 09:00 - 17:00;Saturday: Closed"
"https://key.com/","https://www.key.com/locations/me/auburn/BRCH19610059/600-center-st","KeyBank Branch in Auburn, ME","600 Center St","Auburn","ME","04210","US","BRCH19610059","207-786-5412","Branch","44.123924","-70.226562","Sunday: Closed;Monday: 09:00 - 17:00;Tuesday: 09:00 - 17:00;Wednesday: 09:00 - 17:00;Thursday: 09:00 - 17:00;Friday: 09:00 - 17:00;Saturday: 09:00 - 12:00"
"https://key.com/","https://www.key.com/locations/in/knox/BRCH01010557/20-n-main-st","KeyBank Branch in Knox, IN","20 N. Main St.","Knox","IN","46534","US","BRCH01010557","574-772-2144","Branch","41.298168","-86.622963","Sunday: Closed;Monday: 09:00 - 16:00;Tuesday: 09:00 - 16:00;Wednesday: 09:00 - 16:00;Thursday: 09:00 - 16:00;Friday: 09:00 - 17:00;Saturday: 09:00 - 12:00"
"https://key.com/","https://www.key.com/locations/in/south-bend/BRCH01010508/4854-western-ave","KeyBank Branch in South Bend, IN","4854 Western Ave","South Bend","IN","46619","US","BRCH01010508","574-237-5424","Branch","41.671470","-86.316024","Sunday: Closed;Monday: 09:00 - 17:00;Tuesday: 09:00 - 17:00;Wednesday: 09:00 - 17:00;Thursday: 09:00 - 17:00;Friday: 09:00 - 17:00;Saturday: 09:00 - 12:00"
"https://key.com/","https://www.key.com/locations/me/augusta/BRCH19610001/286-water-st","KeyBank Branch in Augusta, ME","286 Water St","Augusta","ME","04330","US","BRCH19610001","207-623-5580","Branch","44.315325","-69.774409","Sunday: Closed;Monday: 09:00 - 17:00;Tuesday: 09:00 - 17:00;Wednesday: 09:00 - 17:00;Thursday: 09:00 - 17:00;Friday: 09:00 - 17:00;Saturday: Closed"
"https://key.com/","https://www.key.com/locations/me/bangor/BRCH19610214/29-bangor-mall-blvd","KeyBank Branch in Bangor, ME","29 Bangor Mall Blvd","Bangor","ME","04401","US","BRCH19610214","207-945-0640","Branch","44.836284","-68.744263","Sunday: Closed;Monday: 09:00 - 17:00;Tuesday: 09:00 - 17:00;Wednesday: 09:00 - 17:00;Thursday: 09:00 - 17:00;Friday: 09:00 - 17:00;Saturday: 09:00 - 12:00"
"https://key.com/","https://www.key.com/locations/me/augusta/BRCH19610008/23-whitten-rd","KeyBank Branch in Augusta, ME","23 Whitten Rd","Augusta","ME","04330-6018","US","BRCH19610008","207-622-3156","Branch","44.314309","-69.812774","Sunday: Closed;Monday: 09:00 - 17:00;Tuesday: 09:00 - 17:00;Wednesday: 09:00 - 17:00;Thursday: 09:00 - 17:00;Friday: 09:00 - 17:00;Saturday: 09:00 - 12:00"
"https://key.com/","https://www.key.com/locations/me/belfast/BRCH19610025/111-main-st","KeyBank Branch in Belfast, ME","111 Main St","Belfast","ME","04915","US","BRCH19610025","207-338-3220","Branch","44.425717","-69.007472","Sunday: Closed;Monday: 09:00 - 17:00;Tuesday: 09:00 - 17:00;Wednesday: 09:00 - 17:00;Thursday: 09:00 - 17:00;Friday: 09:00 - 17:00;Saturday: 09:00 - 12:00"
"https://key.com/","https://www.key.com/locations/me/brewer/BRCH19610212/5-parkway-s","KeyBank Branch in Brewer, ME","5 Parkway S","Brewer","ME","04412","US","BRCH19610212","207-989-1613","Branch","44.783522","-68.751135","Sunday: Closed;Monday: 09:00 - 17:00;Tuesday: 09:00 - 17:00;Wednesday: 09:00 - 17:00;Thursday: 09:00 - 17:00;Friday: 09:00 - 17:00;Saturday: 09:00 - 12:00"
"https://key.com/","https://www.key.com/locations/me/bath/BRCH19610104/40-front-st","KeyBank Branch in Bath, ME","40 Front St","Bath","ME","04530","US","BRCH19610104","207-443-5573","Branch","43.912259","-69.814176","Sunday: Closed;Monday: 09:00 - 16:00;Tuesday: 09:00 - 16:00;Wednesday: 09:00 - 16:00;Thursday: 09:00 - 17:00;Friday: 09:00 - 17:00;Saturday: Closed"
"https://key.com/","https://www.key.com/locations/in/zionsville/BRCH01010929/1610-west-oak-street","KeyBank Branch in Zionsville, IN","1610 West Oak Street","Zionsville","IN","46077","US","BRCH01010929","317-733-4030","Branch","39.950092","-86.283331","Sunday: Closed;Monday: 10:00 - 16:00;Tuesday: 10:00 - 16:00;Wednesday: 10:00 - 16:00;Thursday: 10:00 - 16:00;Friday: 10:00 - 16:00;Saturday: Closed"
"https://key.com/","https://www.key.com/locations/me/boothbay-harbor/BRCH19610014/185a-townsend-ave","KeyBank Branch in Boothbay Harbor, ME","185a Townsend Ave","Boothbay Harbor","ME","04538-1846","US","BRCH19610014","207-633-3394","Branch","43.860904","-69.626614","Sunday: Closed;Monday: 09:00 - 16:00;Tuesday: 09:00 - 16:00;Wednesday: 09:00 - 16:00;Thursday: 09:00 - 17:00;Friday: 09:00 - 17:00;Saturday: Closed"
"https://key.com/","https://www.key.com/locations/me/bangor/BRCH19610211/23-water-st","KeyBank Branch in Bangor, ME","23 Water St","Bangor","ME","04401","US","BRCH19610211","207-945-0600","Branch","44.798924","-68.770869","Sunday: Closed;Monday: 09:00 - 17:00;Tuesday: 09:00 - 17:00;Wednesday: 09:00 - 17:00;Thursday: 09:00 - 17:00;Friday: 09:00 - 17:00;Saturday: Closed"
"https://key.com/","https://www.key.com/locations/me/camden/BRCH19610024/141-elm-st","KeyBank Branch in Camden, ME","141 Elm St","Camden","ME","04843","US","BRCH19610024","207-236-3378","Branch","44.201162","-69.078066","Sunday: Closed;Monday: 09:00 - 17:00;Tuesday: 09:00 - 17:00;Wednesday: 09:00 - 17:00;Thursday: 09:00 - 17:00;Friday: 09:00 - 17:00;Saturday: Closed"
"https://key.com/","https://www.key.com/locations/me/brunswick/MCD19611301/172-main-street","Key Private Bank office in Brunswick, ME","172 Main Street","Brunswick","ME","04011","US","MCD19611301","207-729-2631","Private Bank","43.927327","-69.963894","Sunday: Closed;Monday: 08:00 - 17:00;Tuesday: 08:00 - 17:00;Wednesday: 08:00 - 17:00;Thursday: 08:00 - 17:00;Friday: 08:00 - 17:00;Saturday: Closed"
"https://key.com/","https://www.key.com/locations/me/bridgton/BRCH19610120/232-main-st","KeyBank Branch in Bridgton, ME","232 Main St","Bridgton","ME","04009","US","BRCH19610120","207-647-3353","Branch","44.054394","-70.703812","Sunday: Closed;Monday: 09:00 - 16:00;Tuesday: 09:00 - 16:00;Wednesday: 09:00 - 16:00;Thursday: 09:00 - 17:00;Friday: 09:00 - 17:00;Saturday: 09:00 - 12:00"
"https://key.com/","https://www.key.com/locations/me/caribou/BRCH19610307/144-high-st","KeyBank Branch in Caribou, ME","144 High St","Caribou","ME","04736","US","BRCH19610307","207-493-3351","Branch","46.860952","-68.006808","Sunday: Closed;Monday: 09:00 - 17:00;Tuesday: 09:00 - 17:00;Wednesday: 09:00 - 17:00;Thursday: 09:00 - 17:00;Friday: 09:00 - 17:00;Saturday: 09:00 - 12:00"
"https://key.com/","https://www.key.com/locations/me/ellsworth/BRCH19610201/162-high-street","KeyBank Branch in Ellsworth, ME","162 High Street","Ellsworth","ME","04605","US","BRCH19610201","207-669-3055","Branch","44.536270","-68.411593","Sunday: Closed;Monday: 09:00 - 17:00;Tuesday: 09:00 - 17:00;Wednesday: 09:00 - 17:00;Thursday: 09:00 - 17:00;Friday: 09:00 - 17:00;Saturday: 09:00 - 12:00"
"https://key.com/","https://www.key.com/locations/me/brunswick/BRCH19610143/172-maine-street","KeyBank Branch in Brunswick, ME","172 Maine Street","Brunswick","ME","04011","US","BRCH19610143","207-729-2600","Branch","43.913209","-69.964834","Sunday: Closed;Monday: 09:00 - 17:00;Tuesday: 09:00 - 17:00;Wednesday: 09:00 - 17:00;Thursday: 09:00 - 17:00;Friday: 09:00 - 17:00;Saturday: 09:00 - 12:00"
"https://key.com/","https://www.key.com/locations/me/houlton/BRCH19610301/32-market-square","KeyBank Branch in Houlton, ME","32 Market Square","Houlton","ME","04730","US","BRCH19610301","207-532-6557","Branch","46.126062","-67.839999","Sunday: Closed;Monday: 09:00 - 17:00;Tuesday: 09:00 - 17:00;Wednesday: 09:00 - 17:00;Thursday: 09:00 - 17:00;Friday: 09:00 - 17:00;Saturday: 09:00 - 12:00"
"https://key.com/","https://www.key.com/locations/me/freeport/BRCH19610129/135-main-st","KeyBank Branch in Freeport, ME","135 Main St","Freeport","ME","04032","US","BRCH19610129","207-865-4472","Branch","43.858975","-70.102437","Sunday: Closed;Monday: 09:00 - 17:00;Tuesday: 09:00 - 17:00;Wednesday: 09:00 - 17:00;Thursday: 09:00 - 17:00;Friday: 09:00 - 17:00;Saturday: Closed"
"https://key.com/","https://www.key.com/locations/me/fort-kent/BRCH19610360/101-w-main-st","KeyBank Branch in Fort Kent, ME","101 W Main St","Fort Kent","ME","04743","US","BRCH19610360","207-436-3003","Branch","47.250723","-68.597566","Sunday: Closed;Monday: 09:00 - 17:00;Tuesday: 09:00 - 17:00;Wednesday: 09:00 - 17:00;Thursday: 09:00 - 17:00;Friday: 09:00 - 17:00;Saturday: 09:00 - 12:00"
"https://key.com/","https://www.key.com/locations/me/gorham/BRCH19610136/45-main-street","KeyBank Branch in Gorham, ME","45 Main Street","Gorham","ME","04038","US","BRCH19610136","207-839-4211","Branch","43.679970","-70.441521","Sunday: Closed;Monday: 09:00 - 17:00;Tuesday: 09:00 - 17:00;Wednesday: 09:00 - 17:00;Thursday: 09:00 - 17:00;Friday: 09:00 - 17:00;Saturday: 09:00 - 12:00"
"https://key.com/","https://www.key.com/locations/me/falmouth/BRCH19610142/256-us-route-1-unit-1","KeyBank Branch in Falmouth, ME","256 US Route 1 Unit 1","Falmouth","ME","04105-1304","US","BRCH19610142","207-781-3499","Branch","43.724551","-70.232154","Sunday: Closed;Monday: 09:00 - 17:00;Tuesday: 09:00 - 17:00;Wednesday: 09:00 - 17:00;Thursday: 09:00 - 17:00;Friday: 09:00 - 17:00;Saturday: 09:00 - 12:00"
"https://key.com/","https://www.key.com/locations/me/kennebunk/BRCH19610148/one-post-office-square","KeyBank Branch in Kennebunk, ME","One Post Office Square","Kennebunk","ME","04043","US","BRCH19610148","207-985-3584","Branch","43.392363","-70.532955","Sunday: Closed;Monday: 09:00 - 17:00;Tuesday: 09:00 - 17:00;Wednesday: 09:00 - 17:00;Thursday: 09:00 - 17:00;Friday: 09:00 - 17:00;Saturday: 09:00 - 12:00"
"https://key.com/","https://www.key.com/locations/me/norway/BRCH19610110/369-main-st","KeyBank Branch in Norway, ME","369 Main St","Norway","ME","04268","US","BRCH19610110","207-743-6331","Branch","44.213677","-70.541831","Sunday: Closed;Monday: 09:00 - 16:00;Tuesday: 09:00 - 16:00;Wednesday: 09:00 - 16:00;Thursday: 09:00 - 17:00;Friday: 09:00 - 17:00;Saturday: 09:00 - 12:00"
"https://key.com/","https://www.key.com/locations/me/newport/BRCH19610208/63-main-st","KeyBank Branch in Newport, ME","63 Main St","Newport","ME","04953-3011","US","BRCH19610208","207-368-4342","Branch","44.836578","-69.283503","Sunday: Closed;Monday: 09:00 - 17:00;Tuesday: 09:00 - 17:00;Wednesday: 09:00 - 17:00;Thursday: 09:00 - 17:00;Friday: 09:00 - 17:00;Saturday: 09:00 - 12:00"
"https://key.com/","https://www.key.com/locations/me/kittery/BRCH19610172/12-shapleigh-rd","KeyBank Branch in Kittery, ME","12 Shapleigh Rd","Kittery","ME","03904-1462","US","BRCH19610172","207-439-2011","Branch","43.090839","-70.736854","Sunday: Closed;Monday: 09:00 - 17:00;Tuesday: 09:00 - 17:00;Wednesday: 09:00 - 17:00;Thursday: 09:00 - 17:00;Friday: 09:00 - 17:00;Saturday: 09:00 - 12:00"
"https://key.com/","https://www.key.com/locations/me/portland/BRCH19610133/400-forest-ave","KeyBank Branch in Portland, ME","400 Forest Ave.","Portland","ME","04101","US","BRCH19610133","207-245-6227","Branch","43.664821","-70.275329","Sunday: Closed;Monday: 09:00 - 17:00;Tuesday: 09:00 - 17:00;Wednesday: 09:00 - 17:00;Thursday: 09:00 - 17:00;Friday: 09:00 - 17:00;Saturday: 09:00 - 12:00"
"https://key.com/","https://www.key.com/locations/me/lincoln/BRCH19610375/107-w-broadway","KeyBank Branch in Lincoln, ME","107 W Broadway","Lincoln","ME","04457","US","BRCH19610375","207-794-3381","Branch","45.362747","-68.515113","Sunday: Closed;Monday: 09:00 - 16:00;Tuesday: 09:00 - 16:00;Wednesday: 09:00 - 16:00;Thursday: 09:00 - 17:00;Friday: 09:00 - 17:00;Saturday: 09:00 - 12:00"
"https://key.com/","https://www.key.com/locations/me/ogunquit/BRCH19610155/251-main-st","KeyBank Branch in Ogunquit, ME","251 Main St","Ogunquit","ME","03907-0728","US","BRCH19610155","207-646-9450","Branch","43.250161","-70.600044","Sunday: Closed;Monday: 09:00 - 16:00;Tuesday: 09:00 - 16:00;Wednesday: 09:00 - 16:00;Thursday: 09:00 - 17:00;Friday: 09:00 - 17:00;Saturday: Closed"
"https://key.com/","https://www.key.com/locations/me/portland/MCD19610177/one-canal-plaza-2nd-floor","Key Private Bank office in Portland, ME","One Canal Plaza 2nd Floor","Portland","ME","04101","US","MCD19610177","207-874-7102","Private Bank","43.656684","-70.255164","Sunday: Closed;Monday: 08:00 - 17:00;Tuesday: 08:00 - 17:00;Wednesday: 08:00 - 17:00;Thursday: 08:00 - 17:00;Friday: 08:00 - 17:00;Saturday: Closed"
"https://key.com/","https://www.key.com/locations/me/portland/BRCH19610135/85-auburn-st","KeyBank Branch in Portland, ME","85 Auburn St","Portland","ME","04103","US","BRCH19610135","207-771-5304","Branch","43.703413","-70.288467","Sunday: Closed;Monday: 09:00 - 17:00;Tuesday: 09:00 - 17:00;Wednesday: 09:00 - 17:00;Thursday: 09:00 - 17:00;Friday: 09:00 - 17:00;Saturday: Closed"
"https://key.com/","https://www.key.com/locations/me/gray/BRCH19610156/25-portland-rd-","KeyBank Branch in Gray, ME","25 Portland Rd #2","Gray","ME","04039","US","BRCH19610156","207-893-6126","Branch","43.881353","-70.329124","Sunday: Closed;Monday: 09:00 - 16:00;Tuesday: 09:00 - 16:00;Wednesday: 09:00 - 16:00;Thursday: 09:00 - 17:00;Friday: 09:00 - 17:00;Saturday: Closed"
"https://key.com/","https://www.key.com/locations/me/lewiston/BRCH19610051/12-east-ave","KeyBank Branch in Lewiston, ME","12 East Ave","Lewiston","ME","04240-6652","US","BRCH19610051","207-786-5400","Branch","44.086491","-70.202843","Sunday: Closed;Monday: 09:00 - 17:00;Tuesday: 09:00 - 17:00;Wednesday: 09:00 - 17:00;Thursday: 09:00 - 17:00;Friday: 09:00 - 17:00;Saturday: 09:00 - 12:00"
"https://key.com/","https://www.key.com/locations/me/portland/BRCH19610127/one-monument-square","KeyBank Branch in Portland, ME","One Monument Square","Portland","ME","04101","US","BRCH19610127","207-776-7240","Branch","43.657660","-70.258320","Sunday: Closed;Monday: 09:00 - 17:00;Tuesday: 09:00 - 17:00;Wednesday: 09:00 - 17:00;Thursday: 09:00 - 17:00;Friday: 09:00 - 17:00;Saturday: Closed"
"https://key.com/","https://www.key.com/locations/me/rockland/MCD19611013/331-main-street","Key Private Bank office in Rockland, ME","331 Main Street","Rockland","ME","04841","US","MCD19611013","207-594-1098","Private Bank","44.102859","-69.108706","Sunday: Closed;Monday: 08:00 - 17:00;Tuesday: 08:00 - 17:00;Wednesday: 08:00 - 17:00;Thursday: 08:00 - 17:00;Friday: 08:00 - 17:00;Saturday: Closed"
"https://key.com/","https://www.key.com/locations/me/saco/BRCH19610101/2-scammon-st","KeyBank Branch in Saco, ME","2 Scammon St","Saco","ME","04072","US","BRCH19610101","207-283-3631","Branch","43.500514","-70.447870","Sunday: Closed;Monday: 09:00 - 17:00;Tuesday: 09:00 - 17:00;Wednesday: 09:00 - 17:00;Thursday: 09:00 - 17:00;Friday: 09:00 - 17:00;Saturday: 09:00 - 12:00"
"https://key.com/","https://www.key.com/locations/me/scarborough/BRCH19610140/5-hannaford-dr","KeyBank Branch in Scarborough, ME","5 Hannaford Dr","Scarborough","ME","04070-0237","US","BRCH19610140","207-883-4344","Branch","43.593597","-70.330788","Sunday: Closed;Monday: 09:00 - 17:00;Tuesday: 09:00 - 17:00;Wednesday: 09:00 - 17:00;Thursday: 09:00 - 17:00;Friday: 09:00 - 17:00;Saturday: 09:00 - 12:00"
"https://key.com/","https://www.key.com/locations/me/rumford/BRCH19610046/119-congress-st","KeyBank Branch in Rumford, ME","119 Congress St","Rumford","ME","04276-2015","US","BRCH19610046","207-364-4567","Branch","44.545901","-70.545799","Sunday: Closed;Monday: 09:00 - 16:00;Tuesday: 09:00 - 16:00;Wednesday: 09:00 - 16:00;Thursday: 09:00 - 17:00;Friday: 09:00 - 17:00;Saturday: 09:00 - 12:00"
"https://key.com/","https://www.key.com/locations/me/rockland/BRCH19610020/331-main-st","KeyBank Branch in Rockland, ME","331 Main St","Rockland","ME","04841","US","BRCH19610020","207-594-1073","Branch","44.102859","-69.108706","Sunday: Closed;Monday: 09:00 - 17:00;Tuesday: 09:00 - 17:00;Wednesday: 09:00 - 17:00;Thursday: 09:00 - 17:00;Friday: 09:00 - 17:00;Saturday: 09:00 - 12:00"
"https://key.com/","https://www.key.com/locations/me/south-portland/BRCH19610125/445-gorham-rd","KeyBank Branch in South Portland, ME","445 Gorham Rd","South Portland","ME","04106","US","BRCH19610125","207-228-7070","Branch","43.637379","-70.334853","Sunday: Closed;Monday: 09:00 - 17:00;Tuesday: 09:00 - 17:00;Wednesday: 09:00 - 17:00;Thursday: 09:00 - 17:00;Friday: 09:00 - 17:00;Saturday: Closed"
"https://key.com/","https://www.key.com/locations/me/south-portland/BRCH19610134/25-market-st","KeyBank Branch in South Portland, ME","25 Market St","South Portland","ME","04106-3617","US","BRCH19610134","207-874-7330","Branch","43.635935","-70.253818","Sunday: Closed;Monday: 09:00 - 17:00;Tuesday: 09:00 - 17:00;Wednesday: 09:00 - 17:00;Thursday: 09:00 - 17:00;Friday: 09:00 - 17:00;Saturday: 09:00 - 12:00"
"https://key.com/","https://www.key.com/locations/me/springvale/BRCH19610122/471-main-st","KeyBank Branch in Springvale, ME","471 Main St","Springvale","ME","04083","US","BRCH19610122","207-324-3362","Branch","43.465361","-70.796926","Sunday: Closed;Monday: 09:00 - 16:00;Tuesday: 09:00 - 16:00;Wednesday: 09:00 - 16:00;Thursday: 09:00 - 17:00;Friday: 09:00 - 17:00;Saturday: 09:00 - 12:00"
"https://key.com/","https://www.key.com/locations/me/skowhegan/BRCH19610042/214-madison-ave","KeyBank Branch in Skowhegan, ME","214 Madison Ave","Skowhegan","ME","04976","US","BRCH19610042","207-474-3373","Branch","44.776034","-69.724803","Sunday: Closed;Monday: 09:00 - 17:00;Tuesday: 09:00 - 17:00;Wednesday: 09:00 - 17:00;Thursday: 09:00 - 17:00;Friday: 09:00 - 17:00;Saturday: 09:00 - 12:00"
"https://key.com/","https://www.key.com/locations/me/waterville/BRCH19610031/110-main-st","KeyBank Branch in Waterville, ME","110 Main St.","Waterville","ME","04901","US","BRCH19610031","207-873-0742","Branch","44.550174","-69.630503","Sunday: Closed;Monday: 09:00 - 17:00;Tuesday: 09:00 - 17:00;Wednesday: 09:00 - 17:00;Thursday: 09:00 - 17:00;Friday: 09:00 - 17:00;Saturday: 09:00 - 12:00"
"https://key.com/","https://www.key.com/locations/ma/east-longmeadow/BRCH32900791/6-somers-road","KeyBank Branch in East Longmeadow, MA","6 Somers Road","East Longmeadow","MA","01028","US","BRCH32900791","413-747-1351","Branch","42.064565","-72.511908","Sunday: Closed;Monday: 09:00 - 16:00;Tuesday: 09:00 - 16:00;Wednesday: 09:00 - 16:00;Thursday: 09:00 - 17:00;Friday: 09:00 - 17:00;Saturday: 09:00 - 12:00"
"https://key.com/","https://www.key.com/locations/ma/holyoke/BRCH32900821/378-high-street","KeyBank Branch in Holyoke, MA","378 High Street","Holyoke","MA","01040","US","BRCH32900821","413-747-1340","Branch","42.204658","-72.609657","Sunday: Closed;Monday: 09:00 - 17:00;Tuesday: 09:00 - 17:00;Wednesday: 09:00 - 17:00;Thursday: 09:00 - 17:00;Friday: 09:00 - 17:00;Saturday: Closed"
"https://key.com/","https://www.key.com/locations/me/windham/BRCH19610141/1-landing-rd","KeyBank Branch in Windham, ME","1 Landing Rd","Windham","ME","04062","US","BRCH19610141","207-892-9037","Branch","43.839090","-70.443596","Sunday: Closed;Monday: 09:00 - 17:00;Tuesday: 09:00 - 17:00;Wednesday: 09:00 - 17:00;Thursday: 09:00 - 17:00;Friday: 09:00 - 17:00;Saturday: 09:00 - 12:00"
"https://key.com/","https://www.key.com/locations/me/yarmouth/BRCH19610131/188-main-st","KeyBank Branch in Yarmouth, ME","188 Main St","Yarmouth","ME","04096","US","BRCH19610131","207-846-5501","Branch","43.800167","-70.186284","Sunday: Closed;Monday: 09:00 - 17:00;Tuesday: 09:00 - 17:00;Wednesday: 09:00 - 17:00;Thursday: 09:00 - 17:00;Friday: 09:00 - 17:00;Saturday: 09:00 - 12:00"
"https://key.com/","https://www.key.com/locations/ma/feeding-hills/BRCH32900788/5-north-westfield-street","KeyBank Branch in Feeding Hills, MA","5 North Westfield Street","Feeding Hills","MA","01030","US","BRCH32900788","413-747-1320","Branch","42.067199","-72.679100","Sunday: Closed;Monday: 09:00 - 16:00;Tuesday: 09:00 - 16:00;Wednesday: 09:00 - 16:00;Thursday: 09:00 - 17:00;Friday: 09:00 - 17:00;Saturday: 09:00 - 12:00"
"https://key.com/","https://www.key.com/locations/ma/west-springfield/BRCH32900820/225-park-avenue","KeyBank Branch in West Springfield, MA","225 Park Avenue","West Springfield","MA","01089","US","BRCH32900820","413-747-1432","Branch","42.103624","-72.622126","Sunday: Closed;Monday: 09:00 - 17:00;Tuesday: 09:00 - 17:00;Wednesday: 09:00 - 17:00;Thursday: 09:00 - 17:00;Friday: 09:00 - 17:00;Saturday: 09:00 - 12:00"
"https://key.com/","https://www.key.com/locations/ma/west-springfield/BRCH32900787/1063-riverdale-street","KeyBank Branch in West Springfield, MA","1063 Riverdale Street","West Springfield","MA","01089","US","BRCH32900787","413-747-1300","Branch","42.132022","-72.623117","Sunday: Closed;Monday: 09:00 - 16:00;Tuesday: 09:00 - 16:00;Wednesday: 09:00 - 16:00;Thursday: 09:00 - 17:00;Friday: 09:00 - 17:00;Saturday: 09:00 - 12:00"
"https://key.com/","https://www.key.com/locations/ma/ludlow/BRCH32900795/314-center-street","KeyBank Branch in Ludlow, MA","314 Center Street","Ludlow","MA","01056","US","BRCH32900795","413-747-1326","Branch","42.165324","-72.481763","Sunday: Closed;Monday: 09:00 - 17:00;Tuesday: 09:00 - 17:00;Wednesday: 09:00 - 17:00;Thursday: 09:00 - 17:00;Friday: 09:00 - 17:00;Saturday: Closed"
"https://key.com/","https://www.key.com/locations/ma/westfield/BRCH32900793/10-broad-street","KeyBank Branch in Westfield, MA","10 Broad Street","Westfield","MA","01085","US","BRCH32900793","413-747-1360","Branch","42.120353","-72.748281","Sunday: Closed;Monday: 09:00 - 16:00;Tuesday: 09:00 - 16:00;Wednesday: 09:00 - 16:00;Thursday: 09:00 - 17:00;Friday: 09:00 - 17:00;Saturday: Closed"
"https://key.com/","https://www.key.com/locations/ma/southwick/BRCH32900796/664-college-highway","KeyBank Branch in Southwick, MA","664 College Highway","Southwick","MA","01077","US","BRCH32900796","413-747-1425","Branch","42.069137","-72.763684","Sunday: Closed;Monday: 09:00 - 17:00;Tuesday: 09:00 - 17:00;Wednesday: 09:00 - 17:00;Thursday: 09:00 - 17:00;Friday: 09:00 - 17:00;Saturday: Closed"
"https://key.com/","https://www.key.com/locations/mi/adrian/BRCH01010172/1360-w-maumee","KeyBank Branch in Adrian, MI","1360 W Maumee","Adrian","MI","49221","US","BRCH01010172","517-215-7777","Branch","41.903314","-84.062637","Sunday: Closed;Monday: 09:00 - 16:30;Tuesday: 09:00 - 16:30;Wednesday: 09:00 - 16:30;Thursday: 09:00 - 16:30;Friday: 09:00 - 18:00;Saturday: Closed"
"https://key.com/","https://www.key.com/locations/mi/ann-arbor/BRCH01010258/2207-w-stadium-blvd","KeyBank Branch in Ann Arbor, MI","2207 W Stadium Blvd","Ann Arbor","MI","48103","US","BRCH01010258","734-996-4200","Branch","42.274292","-83.777435","Sunday: Closed;Monday: 09:00 - 16:30;Tuesday: 09:00 - 16:30;Wednesday: 09:00 - 16:30;Thursday: 09:00 - 16:30;Friday: 09:00 - 18:00;Saturday: 09:00 - 12:00"
"https://key.com/","https://www.key.com/locations/mi/adrian/BRCH01010170/1352-s-main-st","KeyBank Branch in Adrian, MI","1352 S Main St","Adrian","MI","49221","US","BRCH01010170","517-215-7760","Branch","41.879121","-84.043273","Sunday: Closed;Monday: 09:00 - 16:30;Tuesday: 09:00 - 16:30;Wednesday: 09:00 - 16:30;Thursday: 09:00 - 16:30;Friday: 09:00 - 18:00;Saturday: 09:00 - 12:00"
"https://key.com/","https://www.key.com/locations/mi/ann-arbor/BRCH01010254/2421-plymouth-rd","KeyBank Branch in Ann Arbor, MI","2421 Plymouth Rd","Ann Arbor","MI","48105-2158","US","BRCH01010254","734-327-7001","Branch","42.302311","-83.712898","Sunday: Closed;Monday: 09:00 - 16:30;Tuesday: 09:00 - 16:30;Wednesday: 09:00 - 16:30;Thursday: 09:00 - 16:30;Friday: 09:00 - 18:00;Saturday: 09:00 - 12:00"
"https://key.com/","https://www.key.com/locations/mi/ann-arbor/MCD01010616/100-s-main-st","Key Private Bank office in Ann Arbor, MI","100 S Main St","Ann Arbor","MI","48104","US","MCD01010616","734-741-6608","Private Bank","42.281254","-83.748856","Sunday: Closed;Monday: 08:30 - 17:00;Tuesday: 08:30 - 17:00;Wednesday: 08:30 - 17:00;Thursday: 08:30 - 17:00;Friday: 08:30 - 17:00;Saturday: Closed"
"https://key.com/","https://www.key.com/locations/mi/ann-arbor/BRCH01010223/3848-s-state-st","KeyBank Branch in Ann Arbor, MI","3848 S State St","Ann Arbor","MI","48108","US","BRCH01010223","734-996-8595","Branch","42.231670","-83.739814","Sunday: Closed;Monday: 09:00 - 16:30;Tuesday: 09:00 - 16:30;Wednesday: 09:00 - 16:30;Thursday: 09:00 - 16:30;Friday: 09:00 - 17:00;Saturday: 09:00 - 12:00"
"https://key.com/","https://www.key.com/locations/mi/clawson/BRCH01010673/330-w-14-mile-rd","KeyBank Branch in Clawson, MI","330 W 14 Mile Rd","Clawson","MI","48017","US","BRCH01010673","248-435-2840","Branch","42.533695","-83.151955","Sunday: Closed;Monday: 09:00 - 16:30;Tuesday: 09:00 - 16:30;Wednesday: 09:00 - 16:30;Thursday: 09:00 - 16:30;Friday: 09:00 - 18:00;Saturday: 09:00 - 12:00"
"https://key.com/","https://www.key.com/locations/mi/brighton/BRCH01010319/8199-challis-rd","KeyBank Branch in Brighton, MI","8199 Challis Rd","Brighton","MI","48116","US","BRCH01010319","810-494-4888","Branch","42.544575","-83.790382","Sunday: Closed;Monday: 09:00 - 16:30;Tuesday: 09:00 - 16:30;Wednesday: 09:00 - 16:30;Thursday: 09:00 - 16:30;Friday: 09:00 - 17:30;Saturday: 09:00 - 12:00"
"https://key.com/","https://www.key.com/locations/mi/livonia/BRCH01010677/37124-six-mile-rd","KeyBank Branch in Livonia, MI","37124 Six Mile Rd","Livonia","MI","48152","US","BRCH01010677","734-462-4106","Branch","42.411061","-83.411054","Sunday: Closed;Monday: 09:00 - 16:30;Tuesday: 09:00 - 16:30;Wednesday: 09:00 - 16:30;Thursday: 09:00 - 16:30;Friday: 09:00 - 17:00;Saturday: 09:00 - 12:00"
"https://key.com/","https://www.key.com/locations/mi/lambertville/BRCH01010297/8031-summerfield-rd","KeyBank Branch in Lambertville, MI","8031 Summerfield Rd","Lambertville","MI","48144","US","BRCH01010297","734-856-6745","Branch","41.760517","-83.627480","Sunday: Closed;Monday: 09:00 - 16:30;Tuesday: 09:00 - 16:30;Wednesday: 09:00 - 16:30;Thursday: 09:00 - 16:30;Friday: 09:00 - 18:00;Saturday: 09:00 - 12:00"
